header: 
  seq: 7214
  stamp: 
    secs: 1603731366
    nsecs: 151702523
  frame_id: "robotiq_ft_frame_id"
wrench: 
  force: 
    x: -51.7700004578
    y: -122.36000061
    z: 77.2600021362
  torque: 
    x: -0.372999995947
    y: 0.628000020981
    z: 0.72000002861
---
header: 
  seq: 7215
  stamp: 
    secs: 1603731366
    nsecs: 164104677
  frame_id: "robotiq_ft_frame_id"
wrench: 
  force: 
    x: -52.3499984741
    y: -122.870002747
    z: 76.8899993896
  torque: 
    x: -0.368000000715
    y: 0.633000016212
    z: 0.707000017166
---
header: 
  seq: 7216
  stamp: 
    secs: 1603731366
    nsecs: 180644028
  frame_id: "robotiq_ft_frame_id"
wrench: 
  force: 
    x: -52.3400001526
    y: -123.559997559
    z: 76.9100036621
  torque: 
    x: -0.360000014305
    y: 0.635999977589
    z: 0.707000017166
---
header: 
  seq: 7217
  stamp: 
    secs: 1603731366
    nsecs: 197156468
  frame_id: "robotiq_ft_frame_id"
wrench: 
  force: 
    x: -52.3600006104
    y: -123.459999084
    z: 76.8099975586
  torque: 
    x: -0.342999994755
    y: 0.635999977589
    z: 0.698000013828
---
header: 
  seq: 7218
  stamp: 
    secs: 1603731366
    nsecs: 213664106
  frame_id: "robotiq_ft_frame_id"
wrench: 
  force: 
    x: -52.3600006104
    y: -122.959999084
    z: 76.6500015259
  torque: 
    x: -0.33599999547
    y: 0.629999995232
    z: 0.691999971867
---
header: 
  seq: 7219
  stamp: 
    secs: 1603731366
    nsecs: 230142779
  frame_id: "robotiq_ft_frame_id"
wrench: 
  force: 
    x: -52.4700012207
    y: -122.379997253
    z: 76.6800003052
  torque: 
    x: -0.349000006914
    y: 0.648000001907
    z: 0.669000029564
---
header: 
  seq: 7220
  stamp: 
    secs: 1603731366
    nsecs: 246623972
  frame_id: "robotiq_ft_frame_id"
wrench: 
  force: 
    x: -52.2599983215
    y: -121.730003357
    z: 76.6399993896
  torque: 
    x: -0.351999998093
    y: 0.637000024319
    z: 0.694999992847
---
header: 
  seq: 7221
  stamp: 
    secs: 1603731366
    nsecs: 263101823
  frame_id: "robotiq_ft_frame_id"
wrench: 
  force: 
    x: -52.7799987793
    y: -122.180000305
    z: 76.8000030518
  torque: 
    x: -0.34999999404
    y: 0.637000024319
    z: 0.713999986649
---
header: 
  seq: 7222
  stamp: 
    secs: 1603731366
    nsecs: 279606110
  frame_id: "robotiq_ft_frame_id"
wrench: 
  force: 
    x: -53.5200004578
    y: -122.989997864
    z: 76.7099990845
  torque: 
    x: -0.34999999404
    y: 0.64099997282
    z: 0.705999970436
---
header: 
  seq: 7223
  stamp: 
    secs: 1603731366
    nsecs: 291979240
  frame_id: "robotiq_ft_frame_id"
wrench: 
  force: 
    x: -52.5499992371
    y: -122.089996338
    z: 76.5299987793
  torque: 
    x: -0.347999989986
    y: 0.634000003338
    z: 0.703999996185
---
header: 
  seq: 7224
  stamp: 
    secs: 1603731366
    nsecs: 308489663
  frame_id: "robotiq_ft_frame_id"
wrench: 
  force: 
    x: -52.0200004578
    y: -122.300003052
    z: 76.9800033569
  torque: 
    x: -0.347000002861
    y: 0.635999977589
    z: 0.700999975204
---
header: 
  seq: 7225
  stamp: 
    secs: 1603731366
    nsecs: 325020317
  frame_id: "robotiq_ft_frame_id"
wrench: 
  force: 
    x: -52.0200004578
    y: -122.629997253
    z: 77.1999969482
  torque: 
    x: -0.342000007629
    y: 0.635999977589
    z: 0.717000007629
---
header: 
  seq: 7226
  stamp: 
    secs: 1603731366
    nsecs: 341547440
  frame_id: "robotiq_ft_frame_id"
wrench: 
  force: 
    x: -52.1599998474
    y: -122.790000916
    z: 77.0
  torque: 
    x: -0.351999998093
    y: 0.635999977589
    z: 0.731999993324
---
header: 
  seq: 7227
  stamp: 
    secs: 1603731366
    nsecs: 358046888
  frame_id: "robotiq_ft_frame_id"
wrench: 
  force: 
    x: -52.0200004578
    y: -123.059997559
    z: 77.2099990845
  torque: 
    x: -0.356000006199
    y: 0.634000003338
    z: 0.73299998045
---
header: 
  seq: 7228
  stamp: 
    secs: 1603731366
    nsecs: 374516935
  frame_id: "robotiq_ft_frame_id"
wrench: 
  force: 
    x: -52.75
    y: -123.959999084
    z: 77.3000030518
  torque: 
    x: -0.361000001431
    y: 0.638000011444
    z: 0.731999993324
---
header: 
  seq: 7229
  stamp: 
    secs: 1603731366
    nsecs: 390916825
  frame_id: "robotiq_ft_frame_id"
wrench: 
  force: 
    x: -52.0200004578
    y: -123.080001831
    z: 77.0400009155
  torque: 
    x: -0.352999985218
    y: 0.620999991894
    z: 0.699999988079
---
header: 
  seq: 7230
  stamp: 
    secs: 1603731366
    nsecs: 407439546
  frame_id: "robotiq_ft_frame_id"
wrench: 
  force: 
    x: -51.9099998474
    y: -123.589996338
    z: 77.1500015259
  torque: 
    x: -0.34999999404
    y: 0.626999974251
    z: 0.704999983311
---
header: 
  seq: 7231
  stamp: 
    secs: 1603731366
    nsecs: 419862363
  frame_id: "robotiq_ft_frame_id"
wrench: 
  force: 
    x: -53.1500015259
    y: -123.599998474
    z: 76.6699981689
  torque: 
    x: -0.347999989986
    y: 0.635999977589
    z: 0.70300000906
---
header: 
  seq: 7232
  stamp: 
    secs: 1603731366
    nsecs: 436337053
  frame_id: "robotiq_ft_frame_id"
wrench: 
  force: 
    x: -53.9900016785
    y: -123.88999939
    z: 76.3499984741
  torque: 
    x: -0.340000003576
    y: 0.638999998569
    z: 0.702000021935
---
header: 
  seq: 7233
  stamp: 
    secs: 1603731366
    nsecs: 452973913
  frame_id: "robotiq_ft_frame_id"
wrench: 
  force: 
    x: -54.3199996948
    y: -123.569999695
    z: 76.6200027466
  torque: 
    x: -0.340999990702
    y: 0.638999998569
    z: 0.70300000906
---
header: 
  seq: 7234
  stamp: 
    secs: 1603731366
    nsecs: 469477954
  frame_id: "robotiq_ft_frame_id"
wrench: 
  force: 
    x: -53.2099990845
    y: -122.879997253
    z: 76.6999969482
  torque: 
    x: -0.321999996901
    y: 0.65600001812
    z: 0.704999983311
---
header: 
  seq: 7235
  stamp: 
    secs: 1603731366
    nsecs: 485992689
  frame_id: "robotiq_ft_frame_id"
wrench: 
  force: 
    x: -53.6899986267
    y: -123.190002441
    z: 76.4700012207
  torque: 
    x: -0.338999986649
    y: 0.647000014782
    z: 0.702000021935
---
header: 
  seq: 7236
  stamp: 
    secs: 1603731366
    nsecs: 502324555
  frame_id: "robotiq_ft_frame_id"
wrench: 
  force: 
    x: -54.8300018311
    y: -124.120002747
    z: 76.6800003052
  torque: 
    x: -0.360000014305
    y: 0.65600001812
    z: 0.690999984741
---
header: 
  seq: 7237
  stamp: 
    secs: 1603731366
    nsecs: 518558091
  frame_id: "robotiq_ft_frame_id"
wrench: 
  force: 
    x: -55.0299987793
    y: -124.230003357
    z: 76.8199996948
  torque: 
    x: -0.352999985218
    y: 0.652999997139
    z: 0.688000023365
---
header: 
  seq: 7238
  stamp: 
    secs: 1603731366
    nsecs: 534825453
  frame_id: "robotiq_ft_frame_id"
wrench: 
  force: 
    x: -53.7400016785
    y: -122.980003357
    z: 76.8000030518
  torque: 
    x: -0.344999998808
    y: 0.652000010014
    z: 0.725000023842
---
header: 
  seq: 7239
  stamp: 
    secs: 1603731366
    nsecs: 551296401
  frame_id: "robotiq_ft_frame_id"
wrench: 
  force: 
    x: -52.9300003052
    y: -123.169998169
    z: 76.7699966431
  torque: 
    x: -0.347000002861
    y: 0.626999974251
    z: 0.71899998188
---
header: 
  seq: 7240
  stamp: 
    secs: 1603731366
    nsecs: 567554093
  frame_id: "robotiq_ft_frame_id"
wrench: 
  force: 
    x: -52.9099998474
    y: -123.580001831
    z: 76.6600036621
  torque: 
    x: -0.349000006914
    y: 0.626999974251
    z: 0.722000002861
---
header: 
  seq: 7241
  stamp: 
    secs: 1603731366
    nsecs: 579932322
  frame_id: "robotiq_ft_frame_id"
wrench: 
  force: 
    x: -53.4000015259
    y: -124.099998474
    z: 77.1999969482
  torque: 
    x: -0.352999985218
    y: 0.634999990463
    z: 0.723999977112
---
header: 
  seq: 7242
  stamp: 
    secs: 1603731366
    nsecs: 596347754
  frame_id: "robotiq_ft_frame_id"
wrench: 
  force: 
    x: -53.4099998474
    y: -124.25
    z: 77.0599975586
  torque: 
    x: -0.361000001431
    y: 0.643000006676
    z: 0.722999989986
---
header: 
  seq: 7243
  stamp: 
    secs: 1603731366
    nsecs: 612880481
  frame_id: "robotiq_ft_frame_id"
wrench: 
  force: 
    x: -52.8499984741
    y: -124.120002747
    z: 76.8099975586
  torque: 
    x: -0.344999998808
    y: 0.643000006676
    z: 0.722000002861
---
header: 
  seq: 7244
  stamp: 
    secs: 1603731366
    nsecs: 629395042
  frame_id: "robotiq_ft_frame_id"
wrench: 
  force: 
    x: -51.7000007629
    y: -123.199996948
    z: 76.4400024414
  torque: 
    x: -0.344999998808
    y: 0.639999985695
    z: 0.717999994755
---
header: 
  seq: 7245
  stamp: 
    secs: 1603731366
    nsecs: 645898515
  frame_id: "robotiq_ft_frame_id"
wrench: 
  force: 
    x: -51.5900001526
    y: -123.160003662
    z: 76.6800003052
  torque: 
    x: -0.344000011683
    y: 0.639999985695
    z: 0.721000015736
---
header: 
  seq: 7246
  stamp: 
    secs: 1603731366
    nsecs: 662462778
  frame_id: "robotiq_ft_frame_id"
wrench: 
  force: 
    x: -52.4599990845
    y: -122.800003052
    z: 77.0800018311
  torque: 
    x: -0.360000014305
    y: 0.646000027657
    z: 0.711000025272
---
header: 
  seq: 7247
  stamp: 
    secs: 1603731366
    nsecs: 678913653
  frame_id: "robotiq_ft_frame_id"
wrench: 
  force: 
    x: -54.4000015259
    y: -124.489997864
    z: 76.8300018311
  torque: 
    x: -0.354000002146
    y: 0.644999980927
    z: 0.713999986649
---
header: 
  seq: 7248
  stamp: 
    secs: 1603731366
    nsecs: 695685502
  frame_id: "robotiq_ft_frame_id"
wrench: 
  force: 
    x: -54.6800003052
    y: -124.0
    z: 76.6699981689
  torque: 
    x: -0.358000010252
    y: 0.646000027657
    z: 0.704999983311
---
header: 
  seq: 7249
  stamp: 
    secs: 1603731366
    nsecs: 708023526
  frame_id: "robotiq_ft_frame_id"
wrench: 
  force: 
    x: -53.3899993896
    y: -124.440002441
    z: 76.7300033569
  torque: 
    x: -0.342999994755
    y: 0.638000011444
    z: 0.711000025272
---
header: 
  seq: 7250
  stamp: 
    secs: 1603731366
    nsecs: 724574569
  frame_id: "robotiq_ft_frame_id"
wrench: 
  force: 
    x: -53.0699996948
    y: -124.330001831
    z: 76.8099975586
  torque: 
    x: -0.354000002146
    y: 0.646000027657
    z: 0.695999979973
---
header: 
  seq: 7251
  stamp: 
    secs: 1603731366
    nsecs: 741103325
  frame_id: "robotiq_ft_frame_id"
wrench: 
  force: 
    x: -52.1399993896
    y: -123.069999695
    z: 76.6900024414
  torque: 
    x: -0.354000002146
    y: 0.64099997282
    z: 0.694999992847
---
header: 
  seq: 7252
  stamp: 
    secs: 1603731366
    nsecs: 757641529
  frame_id: "robotiq_ft_frame_id"
wrench: 
  force: 
    x: -52.9000015259
    y: -123.410003662
    z: 77.0500030518
  torque: 
    x: -0.354999989271
    y: 0.638000011444
    z: 0.697000026703
---
header: 
  seq: 7253
  stamp: 
    secs: 1603731366
    nsecs: 774073763
  frame_id: "robotiq_ft_frame_id"
wrench: 
  force: 
    x: -54.1399993896
    y: -123.36000061
    z: 77.1100006104
  torque: 
    x: -0.361999988556
    y: 0.643999993801
    z: 0.688000023365
---
header: 
  seq: 7254
  stamp: 
    secs: 1603731366
    nsecs: 790499150
  frame_id: "robotiq_ft_frame_id"
wrench: 
  force: 
    x: -53.5900001526
    y: -123.279998779
    z: 76.8600006104
  torque: 
    x: -0.352999985218
    y: 0.653999984264
    z: 0.677999973297
---
header: 
  seq: 7255
  stamp: 
    secs: 1603731366
    nsecs: 806976230
  frame_id: "robotiq_ft_frame_id"
wrench: 
  force: 
    x: -53.7700004578
    y: -123.080001831
    z: 76.8899993896
  torque: 
    x: -0.340999990702
    y: 0.64099997282
    z: 0.67199999094
---
header: 
  seq: 7256
  stamp: 
    secs: 1603731366
    nsecs: 823460993
  frame_id: "robotiq_ft_frame_id"
wrench: 
  force: 
    x: -53.4099998474
    y: -123.410003662
    z: 76.7799987793
  torque: 
    x: -0.345999985933
    y: 0.635999977589
    z: 0.68599998951
---
header: 
  seq: 7257
  stamp: 
    secs: 1603731366
    nsecs: 839918873
  frame_id: "robotiq_ft_frame_id"
wrench: 
  force: 
    x: -54.1500015259
    y: -124.199996948
    z: 76.8300018311
  torque: 
    x: -0.347999989986
    y: 0.634000003338
    z: 0.68599998951
---
header: 
  seq: 7258
  stamp: 
    secs: 1603731366
    nsecs: 852332660
  frame_id: "robotiq_ft_frame_id"
wrench: 
  force: 
    x: -54.5400009155
    y: -124.599998474
    z: 76.9199981689
  torque: 
    x: -0.352999985218
    y: 0.643000006676
    z: 0.703999996185
---
header: 
  seq: 7259
  stamp: 
    secs: 1603731366
    nsecs: 868843081
  frame_id: "robotiq_ft_frame_id"
wrench: 
  force: 
    x: -54.1199989319
    y: -124.88999939
    z: 77.0500030518
  torque: 
    x: -0.354999989271
    y: 0.639999985695
    z: 0.700999975204
---
header: 
  seq: 7260
  stamp: 
    secs: 1603731366
    nsecs: 885355367
  frame_id: "robotiq_ft_frame_id"
wrench: 
  force: 
    x: -54.2700004578
    y: -124.839996338
    z: 76.8499984741
  torque: 
    x: -0.34999999404
    y: 0.629000008106
    z: 0.694999992847
---
header: 
  seq: 7261
  stamp: 
    secs: 1603731366
    nsecs: 901917467
  frame_id: "robotiq_ft_frame_id"
wrench: 
  force: 
    x: -53.5900001526
    y: -124.699996948
    z: 77.25
  torque: 
    x: -0.351000010967
    y: 0.638999998569
    z: 0.694000005722
---
header: 
  seq: 7262
  stamp: 
    secs: 1603731366
    nsecs: 918427873
  frame_id: "robotiq_ft_frame_id"
wrench: 
  force: 
    x: -53.5699996948
    y: -124.769996643
    z: 76.9300003052
  torque: 
    x: -0.351000010967
    y: 0.637000024319
    z: 0.705999970436
---
header: 
  seq: 7263
  stamp: 
    secs: 1603731366
    nsecs: 934867518
  frame_id: "robotiq_ft_frame_id"
wrench: 
  force: 
    x: -52.6500015259
    y: -125.169998169
    z: 76.6600036621
  torque: 
    x: -0.347000002861
    y: 0.629000008106
    z: 0.730000019073
---
header: 
  seq: 7264
  stamp: 
    secs: 1603731366
    nsecs: 951404628
  frame_id: "robotiq_ft_frame_id"
wrench: 
  force: 
    x: -53.9700012207
    y: -124.849998474
    z: 77.1699981689
  torque: 
    x: -0.331999987364
    y: 0.637000024319
    z: 0.690999984741
---
header: 
  seq: 7265
  stamp: 
    secs: 1603731366
    nsecs: 967924526
  frame_id: "robotiq_ft_frame_id"
wrench: 
  force: 
    x: -54.3499984741
    y: -124.279998779
    z: 77.2099990845
  torque: 
    x: -0.352999985218
    y: 0.643000006676
    z: 0.693000018597
---
header: 
  seq: 7266
  stamp: 
    secs: 1603731366
    nsecs: 980344957
  frame_id: "robotiq_ft_frame_id"
wrench: 
  force: 
    x: -53.6100006104
    y: -123.870002747
    z: 76.8600006104
  torque: 
    x: -0.342000007629
    y: 0.652000010014
    z: 0.698000013828
---
header: 
  seq: 7267
  stamp: 
    secs: 1603731366
    nsecs: 996906160
  frame_id: "robotiq_ft_frame_id"
wrench: 
  force: 
    x: -53.0800018311
    y: -123.629997253
    z: 76.8499984741
  torque: 
    x: -0.337000012398
    y: 0.660000026226
    z: 0.700999975204
---
header: 
  seq: 7268
  stamp: 
    secs: 1603731367
    nsecs:  13458531
  frame_id: "robotiq_ft_frame_id"
wrench: 
  force: 
    x: -53.2400016785
    y: -123.120002747
    z: 77.3000030518
  torque: 
    x: -0.347999989986
    y: 0.649999976158
    z: 0.677999973297
---
header: 
  seq: 7269
  stamp: 
    secs: 1603731367
    nsecs:  30011504
  frame_id: "robotiq_ft_frame_id"
wrench: 
  force: 
    x: -51.7999992371
    y: -123.11000061
    z: 76.9100036621
  torque: 
    x: -0.356999993324
    y: 0.644999980927
    z: 0.690999984741
---
header: 
  seq: 7270
  stamp: 
    secs: 1603731367
    nsecs:  46501637
  frame_id: "robotiq_ft_frame_id"
wrench: 
  force: 
    x: -52.3100013733
    y: -122.010002136
    z: 76.9599990845
  torque: 
    x: -0.356000006199
    y: 0.648999989033
    z: 0.693000018597
---
header: 
  seq: 7271
  stamp: 
    secs: 1603731367
    nsecs:  62976593
  frame_id: "robotiq_ft_frame_id"
wrench: 
  force: 
    x: -53.4599990845
    y: -123.279998779
    z: 77.0
  torque: 
    x: -0.351999998093
    y: 0.652000010014
    z: 0.694000005722
---
header: 
  seq: 7272
  stamp: 
    secs: 1603731367
    nsecs:  79543554
  frame_id: "robotiq_ft_frame_id"
wrench: 
  force: 
    x: -53.2400016785
    y: -123.150001526
    z: 77.1900024414
  torque: 
    x: -0.356000006199
    y: 0.648000001907
    z: 0.686999976635
---
header: 
  seq: 7273
  stamp: 
    secs: 1603731367
    nsecs:  91971027
  frame_id: "robotiq_ft_frame_id"
wrench: 
  force: 
    x: -51.6899986267
    y: -122.5
    z: 77.4499969482
  torque: 
    x: -0.358999997377
    y: 0.639999985695
    z: 0.711000025272
---
header: 
  seq: 7274
  stamp: 
    secs: 1603731367
    nsecs: 108434156
  frame_id: "robotiq_ft_frame_id"
wrench: 
  force: 
    x: -52.1100006104
    y: -122.900001526
    z: 76.9300003052
  torque: 
    x: -0.365999996662
    y: 0.637000024319
    z: 0.689999997616
---
header: 
  seq: 7275
  stamp: 
    secs: 1603731367
    nsecs: 124919828
  frame_id: "robotiq_ft_frame_id"
wrench: 
  force: 
    x: -52.1800003052
    y: -123.050003052
    z: 77.1399993896
  torque: 
    x: -0.345999985933
    y: 0.629000008106
    z: 0.68900001049
---
header: 
  seq: 7276
  stamp: 
    secs: 1603731367
    nsecs: 141421669
  frame_id: "robotiq_ft_frame_id"
wrench: 
  force: 
    x: -52.1699981689
    y: -123.11000061
    z: 76.9400024414
  torque: 
    x: -0.347000002861
    y: 0.629999995232
    z: 0.680000007153
---
header: 
  seq: 7277
  stamp: 
    secs: 1603731367
    nsecs: 157945138
  frame_id: "robotiq_ft_frame_id"
wrench: 
  force: 
    x: -52.7000007629
    y: -123.580001831
    z: 76.9199981689
  torque: 
    x: -0.345999985933
    y: 0.630999982357
    z: 0.694000005722
---
header: 
  seq: 7278
  stamp: 
    secs: 1603731367
    nsecs: 174449995
  frame_id: "robotiq_ft_frame_id"
wrench: 
  force: 
    x: -52.9000015259
    y: -123.599998474
    z: 76.5800018311
  torque: 
    x: -0.352999985218
    y: 0.647000014782
    z: 0.684000015259
---
header: 
  seq: 7279
  stamp: 
    secs: 1603731367
    nsecs: 190903939
  frame_id: "robotiq_ft_frame_id"
wrench: 
  force: 
    x: -52.1300010681
    y: -122.559997559
    z: 76.6800003052
  torque: 
    x: -0.356000006199
    y: 0.646000027657
    z: 0.70300000906
---
header: 
  seq: 7280
  stamp: 
    secs: 1603731367
    nsecs: 207431439
  frame_id: "robotiq_ft_frame_id"
wrench: 
  force: 
    x: -51.3800010681
    y: -123.180000305
    z: 77.0400009155
  torque: 
    x: -0.352999985218
    y: 0.639999985695
    z: 0.726000010967
---
header: 
  seq: 7281
  stamp: 
    secs: 1603731367
    nsecs: 223972631
  frame_id: "robotiq_ft_frame_id"
wrench: 
  force: 
    x: -51.1199989319
    y: -123.160003662
    z: 76.8499984741
  torque: 
    x: -0.345999985933
    y: 0.64099997282
    z: 0.705999970436
---
header: 
  seq: 7282
  stamp: 
    secs: 1603731367
    nsecs: 236355673
  frame_id: "robotiq_ft_frame_id"
wrench: 
  force: 
    x: -51.7000007629
    y: -123.769996643
    z: 76.8499984741
  torque: 
    x: -0.344000011683
    y: 0.634999990463
    z: 0.711000025272
---
header: 
  seq: 7283
  stamp: 
    secs: 1603731367
    nsecs: 252904965
  frame_id: "robotiq_ft_frame_id"
wrench: 
  force: 
    x: -51.6199989319
    y: -123.440002441
    z: 77.0800018311
  torque: 
    x: -0.344000011683
    y: 0.639999985695
    z: 0.714999973774
---
header: 
  seq: 7284
  stamp: 
    secs: 1603731367
    nsecs: 269415530
  frame_id: "robotiq_ft_frame_id"
wrench: 
  force: 
    x: -51.5699996948
    y: -123.75
    z: 76.8300018311
  torque: 
    x: -0.344000011683
    y: 0.638999998569
    z: 0.717999994755
---
header: 
  seq: 7285
  stamp: 
    secs: 1603731367
    nsecs: 285914035
  frame_id: "robotiq_ft_frame_id"
wrench: 
  force: 
    x: -52.3800010681
    y: -122.730003357
    z: 76.5599975586
  torque: 
    x: -0.358000010252
    y: 0.648999989033
    z: 0.713999986649
---
header: 
  seq: 7286
  stamp: 
    secs: 1603731367
    nsecs: 302372480
  frame_id: "robotiq_ft_frame_id"
wrench: 
  force: 
    x: -53.6800003052
    y: -124.209999084
    z: 76.75
  torque: 
    x: -0.349000006914
    y: 0.644999980927
    z: 0.71899998188
---
header: 
  seq: 7287
  stamp: 
    secs: 1603731367
    nsecs: 318783724
  frame_id: "robotiq_ft_frame_id"
wrench: 
  force: 
    x: -52.8199996948
    y: -123.459999084
    z: 76.5999984741
  torque: 
    x: -0.340999990702
    y: 0.64099997282
    z: 0.699000000954
---
header: 
  seq: 7288
  stamp: 
    secs: 1603731367
    nsecs: 335273412
  frame_id: "robotiq_ft_frame_id"
wrench: 
  force: 
    x: -52.6599998474
    y: -121.86000061
    z: 76.1900024414
  torque: 
    x: -0.356999993324
    y: 0.638000011444
    z: 0.703999996185
---
header: 
  seq: 7289
  stamp: 
    secs: 1603731367
    nsecs: 351814607
  frame_id: "robotiq_ft_frame_id"
wrench: 
  force: 
    x: -52.6399993896
    y: -122.230003357
    z: 76.5299987793
  torque: 
    x: -0.361000001431
    y: 0.64099997282
    z: 0.704999983311
---
header: 
  seq: 7290
  stamp: 
    secs: 1603731367
    nsecs: 364229941
  frame_id: "robotiq_ft_frame_id"
wrench: 
  force: 
    x: -52.8800010681
    y: -122.010002136
    z: 76.4800033569
  torque: 
    x: -0.363999992609
    y: 0.637000024319
    z: 0.713999986649
---
header: 
  seq: 7291
  stamp: 
    secs: 1603731367
    nsecs: 380764101
  frame_id: "robotiq_ft_frame_id"
wrench: 
  force: 
    x: -53.4900016785
    y: -123.36000061
    z: 76.3899993896
  torque: 
    x: -0.344000011683
    y: 0.628000020981
    z: 0.728999972343
---
header: 
  seq: 7292
  stamp: 
    secs: 1603731367
    nsecs: 397294432
  frame_id: "robotiq_ft_frame_id"
wrench: 
  force: 
    x: -52.8600006104
    y: -122.769996643
    z: 76.5299987793
  torque: 
    x: -0.344000011683
    y: 0.633000016212
    z: 0.717000007629
---
header: 
  seq: 7293
  stamp: 
    secs: 1603731367
    nsecs: 413837582
  frame_id: "robotiq_ft_frame_id"
wrench: 
  force: 
    x: -52.7400016785
    y: -122.449996948
    z: 76.5800018311
  torque: 
    x: -0.342999994755
    y: 0.629000008106
    z: 0.717000007629
---
header: 
  seq: 7294
  stamp: 
    secs: 1603731367
    nsecs: 430382136
  frame_id: "robotiq_ft_frame_id"
wrench: 
  force: 
    x: -52.9599990845
    y: -122.089996338
    z: 76.5699996948
  torque: 
    x: -0.351999998093
    y: 0.644999980927
    z: 0.708000004292
---
header: 
  seq: 7295
  stamp: 
    secs: 1603731367
    nsecs: 446865051
  frame_id: "robotiq_ft_frame_id"
wrench: 
  force: 
    x: -52.6599998474
    y: -122.400001526
    z: 76.75
  torque: 
    x: -0.34999999404
    y: 0.64200001955
    z: 0.708000004292
---
header: 
  seq: 7296
  stamp: 
    secs: 1603731367
    nsecs: 463376857
  frame_id: "robotiq_ft_frame_id"
wrench: 
  force: 
    x: -52.7599983215
    y: -121.830001831
    z: 76.5599975586
  torque: 
    x: -0.347999989986
    y: 0.64099997282
    z: 0.703999996185
---
header: 
  seq: 7297
  stamp: 
    secs: 1603731367
    nsecs: 479925052
  frame_id: "robotiq_ft_frame_id"
wrench: 
  force: 
    x: -53.0800018311
    y: -121.730003357
    z: 76.5800018311
  torque: 
    x: -0.356000006199
    y: 0.638000011444
    z: 0.681999981403
---
header: 
  seq: 7298
  stamp: 
    secs: 1603731367
    nsecs: 492346806
  frame_id: "robotiq_ft_frame_id"
wrench: 
  force: 
    x: -53.9399986267
    y: -122.660003662
    z: 76.5800018311
  torque: 
    x: -0.356999993324
    y: 0.635999977589
    z: 0.648999989033
---
header: 
  seq: 7299
  stamp: 
    secs: 1603731367
    nsecs: 508853798
  frame_id: "robotiq_ft_frame_id"
wrench: 
  force: 
    x: -54.4399986267
    y: -123.699996948
    z: 76.8600006104
  torque: 
    x: -0.354000002146
    y: 0.639999985695
    z: 0.669000029564
---
header: 
  seq: 7300
  stamp: 
    secs: 1603731367
    nsecs: 525396608
  frame_id: "robotiq_ft_frame_id"
wrench: 
  force: 
    x: -54.7200012207
    y: -123.599998474
    z: 76.9199981689
  torque: 
    x: -0.361000001431
    y: 0.644999980927
    z: 0.67199999094
---
header: 
  seq: 7301
  stamp: 
    secs: 1603731367
    nsecs: 541894168
  frame_id: "robotiq_ft_frame_id"
wrench: 
  force: 
    x: -54.7299995422
    y: -123.919998169
    z: 76.3600006104
  torque: 
    x: -0.354999989271
    y: 0.629999995232
    z: 0.676999986172
---
header: 
  seq: 7302
  stamp: 
    secs: 1603731367
    nsecs: 558445348
  frame_id: "robotiq_ft_frame_id"
wrench: 
  force: 
    x: -54.5800018311
    y: -123.839996338
    z: 76.2900009155
  torque: 
    x: -0.344000011683
    y: 0.638000011444
    z: 0.672999978065
---
header: 
  seq: 7303
  stamp: 
    secs: 1603731367
    nsecs: 574902378
  frame_id: "robotiq_ft_frame_id"
wrench: 
  force: 
    x: -55.4099998474
    y: -124.349998474
    z: 76.5400009155
  torque: 
    x: -0.360000014305
    y: 0.651000022888
    z: 0.70300000906
---
header: 
  seq: 7304
  stamp: 
    secs: 1603731367
    nsecs: 591442977
  frame_id: "robotiq_ft_frame_id"
wrench: 
  force: 
    x: -55.0400009155
    y: -124.510002136
    z: 76.4100036621
  torque: 
    x: -0.358999997377
    y: 0.643999993801
    z: 0.699000000954
---
header: 
  seq: 7305
  stamp: 
    secs: 1603731367
    nsecs: 607923875
  frame_id: "robotiq_ft_frame_id"
wrench: 
  force: 
    x: -54.8699989319
    y: -124.260002136
    z: 76.6200027466
  torque: 
    x: -0.360000014305
    y: 0.646000027657
    z: 0.68900001049
---
header: 
  seq: 7306
  stamp: 
    secs: 1603731367
    nsecs: 620340626
  frame_id: "robotiq_ft_frame_id"
wrench: 
  force: 
    x: -55.4900016785
    y: -124.819999695
    z: 76.2099990845
  torque: 
    x: -0.349000006914
    y: 0.638000011444
    z: 0.722000002861
---
header: 
  seq: 7307
  stamp: 
    secs: 1603731367
    nsecs: 636885067
  frame_id: "robotiq_ft_frame_id"
wrench: 
  force: 
    x: -54.7299995422
    y: -123.900001526
    z: 76.3199996948
  torque: 
    x: -0.351000010967
    y: 0.637000024319
    z: 0.726000010967
---
header: 
  seq: 7308
  stamp: 
    secs: 1603731367
    nsecs: 653406912
  frame_id: "robotiq_ft_frame_id"
wrench: 
  force: 
    x: -55.2200012207
    y: -123.459999084
    z: 76.2699966431
  torque: 
    x: -0.360000014305
    y: 0.643999993801
    z: 0.685000002384
---
header: 
  seq: 7309
  stamp: 
    secs: 1603731367
    nsecs: 669915139
  frame_id: "robotiq_ft_frame_id"
wrench: 
  force: 
    x: -54.2799987793
    y: -123.339996338
    z: 76.0299987793
  torque: 
    x: -0.356999993324
    y: 0.644999980927
    z: 0.675000011921
---
header: 
  seq: 7310
  stamp: 
    secs: 1603731367
    nsecs: 686382277
  frame_id: "robotiq_ft_frame_id"
wrench: 
  force: 
    x: -54.1300010681
    y: -123.099998474
    z: 76.0100021362
  torque: 
    x: -0.352999985218
    y: 0.632000029087
    z: 0.680999994278
---
header: 
  seq: 7311
  stamp: 
    secs: 1603731367
    nsecs: 702844118
  frame_id: "robotiq_ft_frame_id"
wrench: 
  force: 
    x: -53.7000007629
    y: -123.269996643
    z: 76.3199996948
  torque: 
    x: -0.344999998808
    y: 0.652999997139
    z: 0.675000011921
---
header: 
  seq: 7312
  stamp: 
    secs: 1603731367
    nsecs: 719335581
  frame_id: "robotiq_ft_frame_id"
wrench: 
  force: 
    x: -53.7299995422
    y: -122.970001221
    z: 76.6100006104
  torque: 
    x: -0.365999996662
    y: 0.634000003338
    z: 0.68599998951
---
header: 
  seq: 7313
  stamp: 
    secs: 1603731367
    nsecs: 735860396
  frame_id: "robotiq_ft_frame_id"
wrench: 
  force: 
    x: -53.4000015259
    y: -123.910003662
    z: 76.3499984741
  torque: 
    x: -0.34999999404
    y: 0.64099997282
    z: 0.68900001049
---
header: 
  seq: 7314
  stamp: 
    secs: 1603731367
    nsecs: 748199857
  frame_id: "robotiq_ft_frame_id"
wrench: 
  force: 
    x: -53.7099990845
    y: -122.800003052
    z: 76.1500015259
  torque: 
    x: -0.358000010252
    y: 0.643999993801
    z: 0.68599998951
---
header: 
  seq: 7315
  stamp: 
    secs: 1603731367
    nsecs: 764695152
  frame_id: "robotiq_ft_frame_id"
wrench: 
  force: 
    x: -53.0699996948
    y: -123.260002136
    z: 76.3399963379
  torque: 
    x: -0.361999988556
    y: 0.648000001907
    z: 0.693000018597
---
header: 
  seq: 7316
  stamp: 
    secs: 1603731367
    nsecs: 781257234
  frame_id: "robotiq_ft_frame_id"
wrench: 
  force: 
    x: -53.1699981689
    y: -124.459999084
    z: 76.6699981689
  torque: 
    x: -0.347000002861
    y: 0.646000027657
    z: 0.684000015259
---
header: 
  seq: 7317
  stamp: 
    secs: 1603731367
    nsecs: 797745690
  frame_id: "robotiq_ft_frame_id"
wrench: 
  force: 
    x: -53.2299995422
    y: -124.459999084
    z: 76.6699981689
  torque: 
    x: -0.34999999404
    y: 0.643000006676
    z: 0.700999975204
---
header: 
  seq: 7318
  stamp: 
    secs: 1603731367
    nsecs: 814167675
  frame_id: "robotiq_ft_frame_id"
wrench: 
  force: 
    x: -53.9199981689
    y: -124.489997864
    z: 76.5400009155
  torque: 
    x: -0.34999999404
    y: 0.65499997139
    z: 0.707000017166
---
header: 
  seq: 7319
  stamp: 
    secs: 1603731367
    nsecs: 830582793
  frame_id: "robotiq_ft_frame_id"
wrench: 
  force: 
    x: -54.1100006104
    y: -123.739997864
    z: 75.9899978638
  torque: 
    x: -0.356999993324
    y: 0.65600001812
    z: 0.708999991417
---
header: 
  seq: 7320
  stamp: 
    secs: 1603731367
    nsecs: 847048527
  frame_id: "robotiq_ft_frame_id"
wrench: 
  force: 
    x: -54.2099990845
    y: -123.349998474
    z: 76.0199966431
  torque: 
    x: -0.354000002146
    y: 0.660000026226
    z: 0.699999988079
---
header: 
  seq: 7321
  stamp: 
    secs: 1603731367
    nsecs: 863598603
  frame_id: "robotiq_ft_frame_id"
wrench: 
  force: 
    x: -53.3199996948
    y: -123.260002136
    z: 76.4000015259
  torque: 
    x: -0.351000010967
    y: 0.658999979496
    z: 0.698000013828
---
header: 
  seq: 7322
  stamp: 
    secs: 1603731367
    nsecs: 880141321
  frame_id: "robotiq_ft_frame_id"
wrench: 
  force: 
    x: -53.1699981689
    y: -123.699996948
    z: 76.3600006104
  torque: 
    x: -0.354999989271
    y: 0.662999987602
    z: 0.686999976635
---
header: 
  seq: 7323
  stamp: 
    secs: 1603731367
    nsecs: 892544285
  frame_id: "robotiq_ft_frame_id"
wrench: 
  force: 
    x: -53.1599998474
    y: -123.839996338
    z: 76.3300018311
  torque: 
    x: -0.342000007629
    y: 0.643999993801
    z: 0.694000005722
---
header: 
  seq: 7324
  stamp: 
    secs: 1603731367
    nsecs: 909198522
  frame_id: "robotiq_ft_frame_id"
wrench: 
  force: 
    x: -51.9700012207
    y: -122.410003662
    z: 76.4100036621
  torque: 
    x: -0.338999986649
    y: 0.644999980927
    z: 0.708000004292
---
header: 
  seq: 7325
  stamp: 
    secs: 1603731367
    nsecs: 925702742
  frame_id: "robotiq_ft_frame_id"
wrench: 
  force: 
    x: -51.8699989319
    y: -121.680000305
    z: 76.4800033569
  torque: 
    x: -0.342999994755
    y: 0.643000006676
    z: 0.713999986649
---
header: 
  seq: 7326
  stamp: 
    secs: 1603731367
    nsecs: 942248278
  frame_id: "robotiq_ft_frame_id"
wrench: 
  force: 
    x: -52.2999992371
    y: -123.089996338
    z: 76.8300018311
  torque: 
    x: -0.338999986649
    y: 0.643000006676
    z: 0.675999999046
---
header: 
  seq: 7327
  stamp: 
    secs: 1603731367
    nsecs: 958699085
  frame_id: "robotiq_ft_frame_id"
wrench: 
  force: 
    x: -51.8600006104
    y: -123.209999084
    z: 76.7399978638
  torque: 
    x: -0.335000008345
    y: 0.643000006676
    z: 0.679000020027
---
header: 
  seq: 7328
  stamp: 
    secs: 1603731367
    nsecs: 975199443
  frame_id: "robotiq_ft_frame_id"
wrench: 
  force: 
    x: -52.2299995422
    y: -123.339996338
    z: 76.6399993896
  torque: 
    x: -0.326999992132
    y: 0.648999989033
    z: 0.667999982834
---
header: 
  seq: 7329
  stamp: 
    secs: 1603731367
    nsecs: 991706103
  frame_id: "robotiq_ft_frame_id"
wrench: 
  force: 
    x: -52.7599983215
    y: -122.540000916
    z: 76.2699966431
  torque: 
    x: -0.33599999547
    y: 0.643999993801
    z: 0.670000016689
---
header: 
  seq: 7330
  stamp: 
    secs: 1603731368
    nsecs:   4133482
  frame_id: "robotiq_ft_frame_id"
wrench: 
  force: 
    x: -52.3100013733
    y: -122.580001831
    z: 76.5100021362
  torque: 
    x: -0.330000013113
    y: 0.646000027657
    z: 0.667999982834
---
header: 
  seq: 7331
  stamp: 
    secs: 1603731368
    nsecs:  20635485
  frame_id: "robotiq_ft_frame_id"
wrench: 
  force: 
    x: -52.1100006104
    y: -122.220001221
    z: 76.8000030518
  torque: 
    x: -0.342999994755
    y: 0.638000011444
    z: 0.671000003815
---
header: 
  seq: 7332
  stamp: 
    secs: 1603731368
    nsecs:  37180016
  frame_id: "robotiq_ft_frame_id"
wrench: 
  force: 
    x: -52.1500015259
    y: -122.370002747
    z: 76.8499984741
  torque: 
    x: -0.340000003576
    y: 0.634999990463
    z: 0.674000024796
---
header: 
  seq: 7333
  stamp: 
    secs: 1603731368
    nsecs:  53671928
  frame_id: "robotiq_ft_frame_id"
wrench: 
  force: 
    x: -52.0299987793
    y: -122.779998779
    z: 77.0
  torque: 
    x: -0.342999994755
    y: 0.638999998569
    z: 0.688000023365
---
header: 
  seq: 7334
  stamp: 
    secs: 1603731368
    nsecs:  70166091
  frame_id: "robotiq_ft_frame_id"
wrench: 
  force: 
    x: -52.9900016785
    y: -121.830001831
    z: 77.1999969482
  torque: 
    x: -0.351000010967
    y: 0.635999977589
    z: 0.674000024796
---
header: 
  seq: 7335
  stamp: 
    secs: 1603731368
    nsecs:  86614580
  frame_id: "robotiq_ft_frame_id"
wrench: 
  force: 
    x: -52.5299987793
    y: -122.010002136
    z: 77.0599975586
  torque: 
    x: -0.356999993324
    y: 0.638999998569
    z: 0.685000002384
---
header: 
  seq: 7336
  stamp: 
    secs: 1603731368
    nsecs: 103098309
  frame_id: "robotiq_ft_frame_id"
wrench: 
  force: 
    x: -52.9799995422
    y: -122.669998169
    z: 76.6299972534
  torque: 
    x: -0.34999999404
    y: 0.644999980927
    z: 0.697000026703
---
header: 
  seq: 7337
  stamp: 
    secs: 1603731368
    nsecs: 119660491
  frame_id: "robotiq_ft_frame_id"
wrench: 
  force: 
    x: -52.9199981689
    y: -122.379997253
    z: 76.75
  torque: 
    x: -0.347000002861
    y: 0.643999993801
    z: 0.680999994278
---
header: 
  seq: 7338
  stamp: 
    secs: 1603731368
    nsecs: 136170723
  frame_id: "robotiq_ft_frame_id"
wrench: 
  force: 
    x: -53.0600013733
    y: -123.190002441
    z: 76.8700027466
  torque: 
    x: -0.342000007629
    y: 0.639999985695
    z: 0.675000011921
---
header: 
  seq: 7339
  stamp: 
    secs: 1603731368
    nsecs: 148554276
  frame_id: "robotiq_ft_frame_id"
wrench: 
  force: 
    x: -52.4700012207
    y: -122.61000061
    z: 76.7799987793
  torque: 
    x: -0.344999998808
    y: 0.634000003338
    z: 0.672999978065
---
header: 
  seq: 7340
  stamp: 
    secs: 1603731368
    nsecs: 165041466
  frame_id: "robotiq_ft_frame_id"
wrench: 
  force: 
    x: -51.9700012207
    y: -121.709999084
    z: 77.1100006104
  torque: 
    x: -0.340999990702
    y: 0.638000011444
    z: 0.67199999094
---
header: 
  seq: 7341
  stamp: 
    secs: 1603731368
    nsecs: 181500567
  frame_id: "robotiq_ft_frame_id"
wrench: 
  force: 
    x: -51.8100013733
    y: -122.019996643
    z: 76.9100036621
  torque: 
    x: -0.340999990702
    y: 0.629000008106
    z: 0.688000023365
---
header: 
  seq: 7342
  stamp: 
    secs: 1603731368
    nsecs: 198066870
  frame_id: "robotiq_ft_frame_id"
wrench: 
  force: 
    x: -51.9199981689
    y: -122.279998779
    z: 76.7300033569
  torque: 
    x: -0.349000006914
    y: 0.64099997282
    z: 0.694999992847
---
header: 
  seq: 7343
  stamp: 
    secs: 1603731368
    nsecs: 214495385
  frame_id: "robotiq_ft_frame_id"
wrench: 
  force: 
    x: -52.7299995422
    y: -122.709999084
    z: 76.8199996948
  torque: 
    x: -0.344000011683
    y: 0.653999984264
    z: 0.691999971867
---
header: 
  seq: 7344
  stamp: 
    secs: 1603731368
    nsecs: 230925102
  frame_id: "robotiq_ft_frame_id"
wrench: 
  force: 
    x: -51.9599990845
    y: -122.069999695
    z: 76.5299987793
  torque: 
    x: -0.342999994755
    y: 0.651000022888
    z: 0.689999997616
---
header: 
  seq: 7345
  stamp: 
    secs: 1603731368
    nsecs: 247470026
  frame_id: "robotiq_ft_frame_id"
wrench: 
  force: 
    x: -51.1599998474
    y: -121.069999695
    z: 76.8099975586
  torque: 
    x: -0.337999999523
    y: 0.652000010014
    z: 0.686999976635
---
header: 
  seq: 7346
  stamp: 
    secs: 1603731368
    nsecs: 264005842
  frame_id: "robotiq_ft_frame_id"
wrench: 
  force: 
    x: -51.6100006104
    y: -121.120002747
    z: 76.6900024414
  torque: 
    x: -0.340999990702
    y: 0.647000014782
    z: 0.694000005722
---
header: 
  seq: 7347
  stamp: 
    secs: 1603731368
    nsecs: 276387546
  frame_id: "robotiq_ft_frame_id"
wrench: 
  force: 
    x: -52.2700004578
    y: -121.550003052
    z: 76.5699996948
  torque: 
    x: -0.342000007629
    y: 0.638999998569
    z: 0.690999984741
---
header: 
  seq: 7348
  stamp: 
    secs: 1603731368
    nsecs: 292929394
  frame_id: "robotiq_ft_frame_id"
wrench: 
  force: 
    x: -53.2900009155
    y: -122.099998474
    z: 76.5199966431
  torque: 
    x: -0.337999999523
    y: 0.637000024319
    z: 0.698000013828
---
header: 
  seq: 7349
  stamp: 
    secs: 1603731368
    nsecs: 309429400
  frame_id: "robotiq_ft_frame_id"
wrench: 
  force: 
    x: -52.75
    y: -123.260002136
    z: 76.3799972534
  torque: 
    x: -0.337000012398
    y: 0.639999985695
    z: 0.714999973774
---
header: 
  seq: 7350
  stamp: 
    secs: 1603731368
    nsecs: 325938270
  frame_id: "robotiq_ft_frame_id"
wrench: 
  force: 
    x: -52.7400016785
    y: -123.230003357
    z: 76.2900009155
  torque: 
    x: -0.337000012398
    y: 0.639999985695
    z: 0.716000020504
---
header: 
  seq: 7351
  stamp: 
    secs: 1603731368
    nsecs: 342502679
  frame_id: "robotiq_ft_frame_id"
wrench: 
  force: 
    x: -52.6599998474
    y: -123.220001221
    z: 76.7099990845
  torque: 
    x: -0.33599999547
    y: 0.643000006676
    z: 0.711000025272
---
header: 
  seq: 7352
  stamp: 
    secs: 1603731368
    nsecs: 358973904
  frame_id: "robotiq_ft_frame_id"
wrench: 
  force: 
    x: -52.6199989319
    y: -123.720001221
    z: 76.7699966431
  torque: 
    x: -0.319000005722
    y: 0.646000027657
    z: 0.708000004292
---
header: 
  seq: 7353
  stamp: 
    secs: 1603731368
    nsecs: 375510474
  frame_id: "robotiq_ft_frame_id"
wrench: 
  force: 
    x: -53.0
    y: -123.849998474
    z: 76.9800033569
  torque: 
    x: -0.345999985933
    y: 0.65499997139
    z: 0.711000025272
---
header: 
  seq: 7354
  stamp: 
    secs: 1603731368
    nsecs: 392025275
  frame_id: "robotiq_ft_frame_id"
wrench: 
  force: 
    x: -53.4000015259
    y: -124.220001221
    z: 76.9199981689
  torque: 
    x: -0.356999993324
    y: 0.648999989033
    z: 0.714999973774
---
header: 
  seq: 7355
  stamp: 
    secs: 1603731368
    nsecs: 404426293
  frame_id: "robotiq_ft_frame_id"
wrench: 
  force: 
    x: -54.3600006104
    y: -124.720001221
    z: 76.7099990845
  torque: 
    x: -0.358000010252
    y: 0.65600001812
    z: 0.728999972343
---
header: 
  seq: 7356
  stamp: 
    secs: 1603731368
    nsecs: 420962530
  frame_id: "robotiq_ft_frame_id"
wrench: 
  force: 
    x: -53.3600006104
    y: -123.559997559
    z: 77.25
  torque: 
    x: -0.344000011683
    y: 0.65600001812
    z: 0.712000012398
---
header: 
  seq: 7357
  stamp: 
    secs: 1603731368
    nsecs: 437449559
  frame_id: "robotiq_ft_frame_id"
wrench: 
  force: 
    x: -52.7299995422
    y: -124.059997559
    z: 77.5100021362
  torque: 
    x: -0.340999990702
    y: 0.65499997139
    z: 0.711000025272
---
header: 
  seq: 7358
  stamp: 
    secs: 1603731368
    nsecs: 453924256
  frame_id: "robotiq_ft_frame_id"
wrench: 
  force: 
    x: -53.2200012207
    y: -123.330001831
    z: 77.4599990845
  torque: 
    x: -0.352999985218
    y: 0.662000000477
    z: 0.694000005722
---
header: 
  seq: 7359
  stamp: 
    secs: 1603731368
    nsecs: 470451826
  frame_id: "robotiq_ft_frame_id"
wrench: 
  force: 
    x: -53.0999984741
    y: -123.410003662
    z: 77.0899963379
  torque: 
    x: -0.351999998093
    y: 0.662000000477
    z: 0.694000005722
---
header: 
  seq: 7360
  stamp: 
    secs: 1603731368
    nsecs: 486837995
  frame_id: "robotiq_ft_frame_id"
wrench: 
  force: 
    x: -51.2799987793
    y: -121.940002441
    z: 76.8899993896
  torque: 
    x: -0.344999998808
    y: 0.643999993801
    z: 0.703999996185
---
header: 
  seq: 7361
  stamp: 
    secs: 1603731368
    nsecs: 503335137
  frame_id: "robotiq_ft_frame_id"
wrench: 
  force: 
    x: -51.6100006104
    y: -122.370002747
    z: 77.0699996948
  torque: 
    x: -0.338999986649
    y: 0.646000027657
    z: 0.697000026703
---
header: 
  seq: 7362
  stamp: 
    secs: 1603731368
    nsecs: 519800859
  frame_id: "robotiq_ft_frame_id"
wrench: 
  force: 
    x: -51.9599990845
    y: -122.709999084
    z: 76.7600021362
  torque: 
    x: -0.340999990702
    y: 0.657000005245
    z: 0.695999979973
---
header: 
  seq: 7363
  stamp: 
    secs: 1603731368
    nsecs: 532196541
  frame_id: "robotiq_ft_frame_id"
wrench: 
  force: 
    x: -52.1399993896
    y: -123.029998779
    z: 76.8000030518
  torque: 
    x: -0.356999993324
    y: 0.653999984264
    z: 0.680999994278
---
header: 
  seq: 7364
  stamp: 
    secs: 1603731368
    nsecs: 548743598
  frame_id: "robotiq_ft_frame_id"
wrench: 
  force: 
    x: -51.2000007629
    y: -122.730003357
    z: 76.9300003052
  torque: 
    x: -0.354000002146
    y: 0.649999976158
    z: 0.672999978065
---
header: 
  seq: 7365
  stamp: 
    secs: 1603731368
    nsecs: 565283850
  frame_id: "robotiq_ft_frame_id"
wrench: 
  force: 
    x: -51.1599998474
    y: -123.120002747
    z: 77.1100006104
  torque: 
    x: -0.337999999523
    y: 0.647000014782
    z: 0.662999987602
---
header: 
  seq: 7366
  stamp: 
    secs: 1603731368
    nsecs: 581838546
  frame_id: "robotiq_ft_frame_id"
wrench: 
  force: 
    x: -52.6399993896
    y: -123.190002441
    z: 77.0299987793
  torque: 
    x: -0.354999989271
    y: 0.644999980927
    z: 0.651000022888
---
header: 
  seq: 7367
  stamp: 
    secs: 1603731368
    nsecs: 598388277
  frame_id: "robotiq_ft_frame_id"
wrench: 
  force: 
    x: -52.9799995422
    y: -123.0
    z: 77.0
  torque: 
    x: -0.356000006199
    y: 0.651000022888
    z: 0.671000003815
---
header: 
  seq: 7368
  stamp: 
    secs: 1603731368
    nsecs: 614923801
  frame_id: "robotiq_ft_frame_id"
wrench: 
  force: 
    x: -51.5299987793
    y: -123.330001831
    z: 77.1900024414
  torque: 
    x: -0.351999998093
    y: 0.661000013351
    z: 0.699000000954
---
header: 
  seq: 7369
  stamp: 
    secs: 1603731368
    nsecs: 631463147
  frame_id: "robotiq_ft_frame_id"
wrench: 
  force: 
    x: -51.0200004578
    y: -122.349998474
    z: 77.2300033569
  torque: 
    x: -0.361000001431
    y: 0.648000001907
    z: 0.680999994278
---
header: 
  seq: 7370
  stamp: 
    secs: 1603731368
    nsecs: 648028428
  frame_id: "robotiq_ft_frame_id"
wrench: 
  force: 
    x: -52.4300003052
    y: -123.129997253
    z: 77.2300033569
  torque: 
    x: -0.352999985218
    y: 0.652999997139
    z: 0.669000029564
---
header: 
  seq: 7371
  stamp: 
    secs: 1603731368
    nsecs: 660405396
  frame_id: "robotiq_ft_frame_id"
wrench: 
  force: 
    x: -52.4099998474
    y: -122.569999695
    z: 77.0800018311
  torque: 
    x: -0.351999998093
    y: 0.65499997139
    z: 0.683000028133
---
header: 
  seq: 7372
  stamp: 
    secs: 1603731368
    nsecs: 676934730
  frame_id: "robotiq_ft_frame_id"
wrench: 
  force: 
    x: -52.7200012207
    y: -122.279998779
    z: 77.1399993896
  torque: 
    x: -0.352999985218
    y: 0.661000013351
    z: 0.680000007153
---
header: 
  seq: 7373
  stamp: 
    secs: 1603731368
    nsecs: 693457976
  frame_id: "robotiq_ft_frame_id"
wrench: 
  force: 
    x: -52.7400016785
    y: -123.319999695
    z: 76.8799972534
  torque: 
    x: -0.333999991417
    y: 0.653999984264
    z: 0.685000002384
---
header: 
  seq: 7374
  stamp: 
    secs: 1603731368
    nsecs: 709946369
  frame_id: "robotiq_ft_frame_id"
wrench: 
  force: 
    x: -52.9099998474
    y: -122.709999084
    z: 76.9700012207
  torque: 
    x: -0.356000006199
    y: 0.647000014782
    z: 0.70300000906
---
header: 
  seq: 7375
  stamp: 
    secs: 1603731368
    nsecs: 726447899
  frame_id: "robotiq_ft_frame_id"
wrench: 
  force: 
    x: -52.4900016785
    y: -121.010002136
    z: 77.3799972534
  torque: 
    x: -0.342000007629
    y: 0.651000022888
    z: 0.677999973297
---
header: 
  seq: 7376
  stamp: 
    secs: 1603731368
    nsecs: 742958290
  frame_id: "robotiq_ft_frame_id"
wrench: 
  force: 
    x: -51.9399986267
    y: -121.599998474
    z: 77.2300033569
  torque: 
    x: -0.356000006199
    y: 0.660000026226
    z: 0.697000026703
---
header: 
  seq: 7377
  stamp: 
    secs: 1603731368
    nsecs: 759492695
  frame_id: "robotiq_ft_frame_id"
wrench: 
  force: 
    x: -51.5699996948
    y: -122.36000061
    z: 77.0899963379
  torque: 
    x: -0.347000002861
    y: 0.646000027657
    z: 0.698000013828
---
header: 
  seq: 7378
  stamp: 
    secs: 1603731368
    nsecs: 776033920
  frame_id: "robotiq_ft_frame_id"
wrench: 
  force: 
    x: -51.3600006104
    y: -122.709999084
    z: 77.1999969482
  torque: 
    x: -0.34999999404
    y: 0.648000001907
    z: 0.698000013828
---
header: 
  seq: 7379
  stamp: 
    secs: 1603731368
    nsecs: 788449992
  frame_id: "robotiq_ft_frame_id"
wrench: 
  force: 
    x: -50.8800010681
    y: -122.300003052
    z: 77.2600021362
  torque: 
    x: -0.342999994755
    y: 0.652999997139
    z: 0.677999973297
---
header: 
  seq: 7380
  stamp: 
    secs: 1603731368
    nsecs: 804942727
  frame_id: "robotiq_ft_frame_id"
wrench: 
  force: 
    x: -51.8300018311
    y: -123.13999939
    z: 77.1399993896
  torque: 
    x: -0.356999993324
    y: 0.653999984264
    z: 0.697000026703
---
header: 
  seq: 7381
  stamp: 
    secs: 1603731368
    nsecs: 821488466
  frame_id: "robotiq_ft_frame_id"
wrench: 
  force: 
    x: -51.7299995422
    y: -121.559997559
    z: 77.1299972534
  torque: 
    x: -0.349000006914
    y: 0.657999992371
    z: 0.67199999094
---
header: 
  seq: 7382
  stamp: 
    secs: 1603731368
    nsecs: 837981909
  frame_id: "robotiq_ft_frame_id"
wrench: 
  force: 
    x: -51.0800018311
    y: -121.830001831
    z: 77.3199996948
  torque: 
    x: -0.361000001431
    y: 0.665000021458
    z: 0.67199999094
---
header: 
  seq: 7383
  stamp: 
    secs: 1603731368
    nsecs: 854492253
  frame_id: "robotiq_ft_frame_id"
wrench: 
  force: 
    x: -53.8100013733
    y: -124.519996643
    z: 77.3499984741
  torque: 
    x: -0.368999987841
    y: 0.652999997139
    z: 0.717999994755
---
header: 
  seq: 7384
  stamp: 
    secs: 1603731368
    nsecs: 870962338
  frame_id: "robotiq_ft_frame_id"
wrench: 
  force: 
    x: -53.2799987793
    y: -123.970001221
    z: 77.1399993896
  torque: 
    x: -0.352999985218
    y: 0.657999992371
    z: 0.731000006199
---
header: 
  seq: 7385
  stamp: 
    secs: 1603731368
    nsecs: 887512798
  frame_id: "robotiq_ft_frame_id"
wrench: 
  force: 
    x: -52.7999992371
    y: -122.279998779
    z: 76.9700012207
  torque: 
    x: -0.34999999404
    y: 0.661000013351
    z: 0.690999984741
---
header: 
  seq: 7386
  stamp: 
    secs: 1603731368
    nsecs: 904059420
  frame_id: "robotiq_ft_frame_id"
wrench: 
  force: 
    x: -52.2099990845
    y: -121.779998779
    z: 76.8099975586
  torque: 
    x: -0.351999998093
    y: 0.651000022888
    z: 0.680000007153
---
header: 
  seq: 7387
  stamp: 
    secs: 1603731368
    nsecs: 916446837
  frame_id: "robotiq_ft_frame_id"
wrench: 
  force: 
    x: -52.0900001526
    y: -121.680000305
    z: 76.8899993896
  torque: 
    x: -0.356999993324
    y: 0.652000010014
    z: 0.686999976635
---
header: 
  seq: 7388
  stamp: 
    secs: 1603731368
    nsecs: 932946831
  frame_id: "robotiq_ft_frame_id"
wrench: 
  force: 
    x: -52.9799995422
    y: -122.190002441
    z: 76.8600006104
  torque: 
    x: -0.356000006199
    y: 0.65499997139
    z: 0.704999983311
---
header: 
  seq: 7389
  stamp: 
    secs: 1603731368
    nsecs: 949393369
  frame_id: "robotiq_ft_frame_id"
wrench: 
  force: 
    x: -52.7999992371
    y: -121.620002747
    z: 76.9000015259
  torque: 
    x: -0.351000010967
    y: 0.648000001907
    z: 0.694000005722
---
header: 
  seq: 7390
  stamp: 
    secs: 1603731368
    nsecs: 965830033
  frame_id: "robotiq_ft_frame_id"
wrench: 
  force: 
    x: -52.2999992371
    y: -122.699996948
    z: 76.8000030518
  torque: 
    x: -0.349000006914
    y: 0.652999997139
    z: 0.695999979973
---
header: 
  seq: 7391
  stamp: 
    secs: 1603731368
    nsecs: 982277867
  frame_id: "robotiq_ft_frame_id"
wrench: 
  force: 
    x: -51.2900009155
    y: -122.089996338
    z: 76.6600036621
  torque: 
    x: -0.360000014305
    y: 0.65600001812
    z: 0.684000015259
---
header: 
  seq: 7392
  stamp: 
    secs: 1603731368
    nsecs: 998803841
  frame_id: "robotiq_ft_frame_id"
wrench: 
  force: 
    x: -51.6100006104
    y: -121.480003357
    z: 77.1399993896
  torque: 
    x: -0.374000012875
    y: 0.670000016689
    z: 0.675000011921
---
header: 
  seq: 7393
  stamp: 
    secs: 1603731369
    nsecs:  15273048
  frame_id: "robotiq_ft_frame_id"
wrench: 
  force: 
    x: -52.0600013733
    y: -121.569999695
    z: 77.0699996948
  torque: 
    x: -0.365000009537
    y: 0.657999992371
    z: 0.67199999094
---
header: 
  seq: 7394
  stamp: 
    secs: 1603731369
    nsecs:  31744856
  frame_id: "robotiq_ft_frame_id"
wrench: 
  force: 
    x: -52.6300010681
    y: -121.900001526
    z: 77.1500015259
  torque: 
    x: -0.358000010252
    y: 0.657000005245
    z: 0.679000020027
---
header: 
  seq: 7395
  stamp: 
    secs: 1603731369
    nsecs:  48233706
  frame_id: "robotiq_ft_frame_id"
wrench: 
  force: 
    x: -52.6100006104
    y: -123.260002136
    z: 77.4199981689
  torque: 
    x: -0.360000014305
    y: 0.661000013351
    z: 0.674000024796
---
header: 
  seq: 7396
  stamp: 
    secs: 1603731369
    nsecs:  60650429
  frame_id: "robotiq_ft_frame_id"
wrench: 
  force: 
    x: -52.4599990845
    y: -122.680000305
    z: 77.1299972534
  torque: 
    x: -0.351000010967
    y: 0.648999989033
    z: 0.675000011921
---
header: 
  seq: 7397
  stamp: 
    secs: 1603731369
    nsecs:  77146240
  frame_id: "robotiq_ft_frame_id"
wrench: 
  force: 
    x: -52.5499992371
    y: -122.690002441
    z: 76.8399963379
  torque: 
    x: -0.342000007629
    y: 0.648999989033
    z: 0.662999987602
---
header: 
  seq: 7398
  stamp: 
    secs: 1603731369
    nsecs:  93621856
  frame_id: "robotiq_ft_frame_id"
wrench: 
  force: 
    x: -52.7599983215
    y: -122.470001221
    z: 77.3000030518
  torque: 
    x: -0.349000006914
    y: 0.65600001812
    z: 0.665000021458
---
header: 
  seq: 7399
  stamp: 
    secs: 1603731369
    nsecs: 110113262
  frame_id: "robotiq_ft_frame_id"
wrench: 
  force: 
    x: -53.2400016785
    y: -122.819999695
    z: 77.4300003052
  torque: 
    x: -0.342999994755
    y: 0.660000026226
    z: 0.672999978065
---
header: 
  seq: 7400
  stamp: 
    secs: 1603731369
    nsecs: 126613714
  frame_id: "robotiq_ft_frame_id"
wrench: 
  force: 
    x: -51.9099998474
    y: -124.220001221
    z: 77.3099975586
  torque: 
    x: -0.333000004292
    y: 0.64099997282
    z: 0.694000005722
---
header: 
  seq: 7401
  stamp: 
    secs: 1603731369
    nsecs: 143144264
  frame_id: "robotiq_ft_frame_id"
wrench: 
  force: 
    x: -53.25
    y: -124.220001221
    z: 76.9899978638
  torque: 
    x: -0.338999986649
    y: 0.65600001812
    z: 0.68900001049
---
header: 
  seq: 7402
  stamp: 
    secs: 1603731369
    nsecs: 159679820
  frame_id: "robotiq_ft_frame_id"
wrench: 
  force: 
    x: -52.8800010681
    y: -125.029998779
    z: 77.3300018311
  torque: 
    x: -0.337999999523
    y: 0.649999976158
    z: 0.68900001049
---
header: 
  seq: 7403
  stamp: 
    secs: 1603731369
    nsecs: 176158255
  frame_id: "robotiq_ft_frame_id"
wrench: 
  force: 
    x: -52.5299987793
    y: -121.779998779
    z: 77.7300033569
  torque: 
    x: -0.344999998808
    y: 0.651000022888
    z: 0.697000026703
---
header: 
  seq: 7404
  stamp: 
    secs: 1603731369
    nsecs: 188579505
  frame_id: "robotiq_ft_frame_id"
wrench: 
  force: 
    x: -53.4000015259
    y: -122.400001526
    z: 77.6200027466
  torque: 
    x: -0.345999985933
    y: 0.647000014782
    z: 0.712000012398
---
header: 
  seq: 7405
  stamp: 
    secs: 1603731369
    nsecs: 205102018
  frame_id: "robotiq_ft_frame_id"
wrench: 
  force: 
    x: -53.1199989319
    y: -121.830001831
    z: 77.4199981689
  torque: 
    x: -0.347999989986
    y: 0.646000027657
    z: 0.697000026703
---
header: 
  seq: 7406
  stamp: 
    secs: 1603731369
    nsecs: 221649388
  frame_id: "robotiq_ft_frame_id"
wrench: 
  force: 
    x: -52.9700012207
    y: -120.970001221
    z: 77.25
  torque: 
    x: -0.340000003576
    y: 0.644999980927
    z: 0.669000029564
---
header: 
  seq: 7407
  stamp: 
    secs: 1603731369
    nsecs: 238142514
  frame_id: "robotiq_ft_frame_id"
wrench: 
  force: 
    x: -53.3199996948
    y: -121.150001526
    z: 76.9000015259
  torque: 
    x: -0.342000007629
    y: 0.647000014782
    z: 0.661000013351
---
header: 
  seq: 7408
  stamp: 
    secs: 1603731369
    nsecs: 254625535
  frame_id: "robotiq_ft_frame_id"
wrench: 
  force: 
    x: -53.4500007629
    y: -120.790000916
    z: 77.2099990845
  torque: 
    x: -0.347000002861
    y: 0.657000005245
    z: 0.693000018597
---
header: 
  seq: 7409
  stamp: 
    secs: 1603731369
    nsecs: 271119940
  frame_id: "robotiq_ft_frame_id"
wrench: 
  force: 
    x: -53.9000015259
    y: -121.209999084
    z: 77.0699996948
  torque: 
    x: -0.354999989271
    y: 0.658999979496
    z: 0.700999975204
---
header: 
  seq: 7410
  stamp: 
    secs: 1603731369
    nsecs: 287658943
  frame_id: "robotiq_ft_frame_id"
wrench: 
  force: 
    x: -51.9599990845
    y: -120.38999939
    z: 77.0599975586
  torque: 
    x: -0.347000002861
    y: 0.652000010014
    z: 0.712000012398
---
header: 
  seq: 7411
  stamp: 
    secs: 1603731369
    nsecs: 304156612
  frame_id: "robotiq_ft_frame_id"
wrench: 
  force: 
    x: -52.6899986267
    y: -122.650001526
    z: 77.0699996948
  torque: 
    x: -0.347000002861
    y: 0.653999984264
    z: 0.676999986172
---
header: 
  seq: 7412
  stamp: 
    secs: 1603731369
    nsecs: 316556523
  frame_id: "robotiq_ft_frame_id"
wrench: 
  force: 
    x: -53.6300010681
    y: -122.220001221
    z: 77.3600006104
  torque: 
    x: -0.356999993324
    y: 0.662999987602
    z: 0.685000002384
---
header: 
  seq: 7413
  stamp: 
    secs: 1603731369
    nsecs: 333120119
  frame_id: "robotiq_ft_frame_id"
wrench: 
  force: 
    x: -51.7599983215
    y: -120.199996948
    z: 77.1800003052
  torque: 
    x: -0.352999985218
    y: 0.658999979496
    z: 0.68900001049
---
header: 
  seq: 7414
  stamp: 
    secs: 1603731369
    nsecs: 349627697
  frame_id: "robotiq_ft_frame_id"
wrench: 
  force: 
    x: -52.3600006104
    y: -120.930000305
    z: 77.1299972534
  torque: 
    x: -0.351000010967
    y: 0.646000027657
    z: 0.709999978542
---
header: 
  seq: 7415
  stamp: 
    secs: 1603731369
    nsecs: 366128434
  frame_id: "robotiq_ft_frame_id"
wrench: 
  force: 
    x: -53.6699981689
    y: -121.949996948
    z: 77.1399993896
  torque: 
    x: -0.351999998093
    y: 0.652000010014
    z: 0.693000018597
---
header: 
  seq: 7416
  stamp: 
    secs: 1603731369
    nsecs: 382630952
  frame_id: "robotiq_ft_frame_id"
wrench: 
  force: 
    x: -52.7799987793
    y: -121.690002441
    z: 77.6399993896
  torque: 
    x: -0.34999999404
    y: 0.65600001812
    z: 0.713999986649
---
header: 
  seq: 7417
  stamp: 
    secs: 1603731369
    nsecs: 399125106
  frame_id: "robotiq_ft_frame_id"
wrench: 
  force: 
    x: -52.5900001526
    y: -121.830001831
    z: 77.5299987793
  torque: 
    x: -0.358000010252
    y: 0.65600001812
    z: 0.721000015736
---
header: 
  seq: 7418
  stamp: 
    secs: 1603731369
    nsecs: 415614457
  frame_id: "robotiq_ft_frame_id"
wrench: 
  force: 
    x: -52.8899993896
    y: -122.209999084
    z: 77.3099975586
  torque: 
    x: -0.358999997377
    y: 0.666000008583
    z: 0.703999996185
---
header: 
  seq: 7419
  stamp: 
    secs: 1603731369
    nsecs: 432155880
  frame_id: "robotiq_ft_frame_id"
wrench: 
  force: 
    x: -52.8600006104
    y: -121.900001526
    z: 77.2200012207
  torque: 
    x: -0.361999988556
    y: 0.658999979496
    z: 0.704999983311
---
header: 
  seq: 7420
  stamp: 
    secs: 1603731369
    nsecs: 444534119
  frame_id: "robotiq_ft_frame_id"
wrench: 
  force: 
    x: -52.9599990845
    y: -120.769996643
    z: 77.3499984741
  torque: 
    x: -0.361000001431
    y: 0.662000000477
    z: 0.691999971867
---
header: 
  seq: 7421
  stamp: 
    secs: 1603731369
    nsecs: 461072270
  frame_id: "robotiq_ft_frame_id"
wrench: 
  force: 
    x: -52.25
    y: -120.269996643
    z: 77.7099990845
  torque: 
    x: -0.34999999404
    y: 0.64099997282
    z: 0.702000021935
---
header: 
  seq: 7422
  stamp: 
    secs: 1603731369
    nsecs: 477449302
  frame_id: "robotiq_ft_frame_id"
wrench: 
  force: 
    x: -51.9799995422
    y: -120.160003662
    z: 77.5299987793
  torque: 
    x: -0.344000011683
    y: 0.644999980927
    z: 0.697000026703
---
header: 
  seq: 7423
  stamp: 
    secs: 1603731369
    nsecs: 493919550
  frame_id: "robotiq_ft_frame_id"
wrench: 
  force: 
    x: -50.9799995422
    y: -118.629997253
    z: 77.7300033569
  torque: 
    x: -0.337999999523
    y: 0.64099997282
    z: 0.717000007629
---
header: 
  seq: 7424
  stamp: 
    secs: 1603731369
    nsecs: 510471430
  frame_id: "robotiq_ft_frame_id"
wrench: 
  force: 
    x: -52.7299995422
    y: -120.169998169
    z: 77.75
  torque: 
    x: -0.349000006914
    y: 0.646000027657
    z: 0.703999996185
---
header: 
  seq: 7425
  stamp: 
    secs: 1603731369
    nsecs: 526892780
  frame_id: "robotiq_ft_frame_id"
wrench: 
  force: 
    x: -53.0499992371
    y: -118.970001221
    z: 77.5699996948
  torque: 
    x: -0.342999994755
    y: 0.651000022888
    z: 0.713999986649
---
header: 
  seq: 7426
  stamp: 
    secs: 1603731369
    nsecs: 543459835
  frame_id: "robotiq_ft_frame_id"
wrench: 
  force: 
    x: -53.1500015259
    y: -118.559997559
    z: 77.6399993896
  torque: 
    x: -0.354999989271
    y: 0.652000010014
    z: 0.690999984741
---
header: 
  seq: 7427
  stamp: 
    secs: 1603731369
    nsecs: 559970004
  frame_id: "robotiq_ft_frame_id"
wrench: 
  force: 
    x: -52.5999984741
    y: -119.459999084
    z: 77.4000015259
  torque: 
    x: -0.347000002861
    y: 0.647000014782
    z: 0.685000002384
---
header: 
  seq: 7428
  stamp: 
    secs: 1603731369
    nsecs: 572381551
  frame_id: "robotiq_ft_frame_id"
wrench: 
  force: 
    x: -52.2599983215
    y: -120.489997864
    z: 77.1399993896
  torque: 
    x: -0.328999996185
    y: 0.648999989033
    z: 0.686999976635
---
header: 
  seq: 7429
  stamp: 
    secs: 1603731369
    nsecs: 588929873
  frame_id: "robotiq_ft_frame_id"
wrench: 
  force: 
    x: -52.0
    y: -120.050003052
    z: 77.1200027466
  torque: 
    x: -0.344000011683
    y: 0.64200001955
    z: 0.691999971867
---
header: 
  seq: 7430
  stamp: 
    secs: 1603731369
    nsecs: 605473082
  frame_id: "robotiq_ft_frame_id"
wrench: 
  force: 
    x: -53.1300010681
    y: -121.419998169
    z: 77.5299987793
  torque: 
    x: -0.338999986649
    y: 0.644999980927
    z: 0.697000026703
---
header: 
  seq: 7431
  stamp: 
    secs: 1603731369
    nsecs: 622016464
  frame_id: "robotiq_ft_frame_id"
wrench: 
  force: 
    x: -53.1100006104
    y: -120.699996948
    z: 77.3199996948
  torque: 
    x: -0.340999990702
    y: 0.633000016212
    z: 0.700999975204
---
header: 
  seq: 7432
  stamp: 
    secs: 1603731369
    nsecs: 638443603
  frame_id: "robotiq_ft_frame_id"
wrench: 
  force: 
    x: -52.9300003052
    y: -120.38999939
    z: 76.8700027466
  torque: 
    x: -0.345999985933
    y: 0.633000016212
    z: 0.708999991417
---
header: 
  seq: 7433
  stamp: 
    secs: 1603731369
    nsecs: 654891198
  frame_id: "robotiq_ft_frame_id"
wrench: 
  force: 
    x: -54.1599998474
    y: -120.760002136
    z: 76.7799987793
  torque: 
    x: -0.331999987364
    y: 0.638999998569
    z: 0.707000017166
---
header: 
  seq: 7434
  stamp: 
    secs: 1603731369
    nsecs: 671429483
  frame_id: "robotiq_ft_frame_id"
wrench: 
  force: 
    x: -53.5900001526
    y: -119.790000916
    z: 77.0100021362
  torque: 
