header: 
  seq: 1183
  stamp: 
    secs: 1603732787
    nsecs: 503202724
  frame_id: "robotiq_ft_frame_id"
wrench: 
  force: 
    x: -34.0200004578
    y: -144.190002441
    z: 106.63999939
  torque: 
    x: -0.0640000030398
    y: 0.661000013351
    z: 1.33099997044
---
header: 
  seq: 1184
  stamp: 
    secs: 1603732787
    nsecs: 519625719
  frame_id: "robotiq_ft_frame_id"
wrench: 
  force: 
    x: -34.1300010681
    y: -144.429992676
    z: 106.410003662
  torque: 
    x: -0.0509999990463
    y: 0.665000021458
    z: 1.34399998188
---
header: 
  seq: 1185
  stamp: 
    secs: 1603732787
    nsecs: 536107459
  frame_id: "robotiq_ft_frame_id"
wrench: 
  force: 
    x: -34.1100006104
    y: -144.729995728
    z: 106.739997864
  torque: 
    x: -0.0489999987185
    y: 0.670000016689
    z: 1.34500002861
---
header: 
  seq: 1186
  stamp: 
    secs: 1603732787
    nsecs: 552652499
  frame_id: "robotiq_ft_frame_id"
wrench: 
  force: 
    x: -34.3199996948
    y: -144.160003662
    z: 106.5
  torque: 
    x: -0.054999999702
    y: 0.680999994278
    z: 1.3370000124
---
header: 
  seq: 1187
  stamp: 
    secs: 1603732787
    nsecs: 565033124
  frame_id: "robotiq_ft_frame_id"
wrench: 
  force: 
    x: -33.75
    y: -144.009994507
    z: 106.260002136
  torque: 
    x: -0.0500000007451
    y: 0.662999987602
    z: 1.33500003815
---
header: 
  seq: 1188
  stamp: 
    secs: 1603732787
    nsecs: 581581432
  frame_id: "robotiq_ft_frame_id"
wrench: 
  force: 
    x: -33.7799987793
    y: -144.039993286
    z: 106.449996948
  torque: 
    x: -0.054999999702
    y: 0.661000013351
    z: 1.34599995613
---
header: 
  seq: 1189
  stamp: 
    secs: 1603732787
    nsecs: 598087217
  frame_id: "robotiq_ft_frame_id"
wrench: 
  force: 
    x: -34.3800010681
    y: -144.559997559
    z: 106.599998474
  torque: 
    x: -0.0560000017285
    y: 0.652999997139
    z: 1.32700002193
---
header: 
  seq: 1190
  stamp: 
    secs: 1603732787
    nsecs: 614566831
  frame_id: "robotiq_ft_frame_id"
wrench: 
  force: 
    x: -34.3499984741
    y: -143.550003052
    z: 106.220001221
  torque: 
    x: -0.0759999975562
    y: 0.662999987602
    z: 1.3259999752
---
header: 
  seq: 1191
  stamp: 
    secs: 1603732787
    nsecs: 631039713
  frame_id: "robotiq_ft_frame_id"
wrench: 
  force: 
    x: -33.8499984741
    y: -144.11000061
    z: 106.239997864
  torque: 
    x: -0.0630000010133
    y: 0.675000011921
    z: 1.33500003815
---
header: 
  seq: 1192
  stamp: 
    secs: 1603732787
    nsecs: 647589846
  frame_id: "robotiq_ft_frame_id"
wrench: 
  force: 
    x: -33.6399993896
    y: -144.699996948
    z: 106.459999084
  torque: 
    x: -0.0599999986589
    y: 0.662999987602
    z: 1.3409999609
---
header: 
  seq: 1193
  stamp: 
    secs: 1603732787
    nsecs: 664132300
  frame_id: "robotiq_ft_frame_id"
wrench: 
  force: 
    x: -34.0200004578
    y: -145.089996338
    z: 106.419998169
  torque: 
    x: -0.0359999984503
    y: 0.665000021458
    z: 1.3409999609
---
header: 
  seq: 1194
  stamp: 
    secs: 1603732787
    nsecs: 680681208
  frame_id: "robotiq_ft_frame_id"
wrench: 
  force: 
    x: -34.5699996948
    y: -144.589996338
    z: 106.239997864
  torque: 
    x: -0.0590000003576
    y: 0.670000016689
    z: 1.33099997044
---
header: 
  seq: 1195
  stamp: 
    secs: 1603732787
    nsecs: 693096225
  frame_id: "robotiq_ft_frame_id"
wrench: 
  force: 
    x: -34.1199989319
    y: -144.279998779
    z: 106.279998779
  torque: 
    x: -0.0670000016689
    y: 0.67199999094
    z: 1.32099997997
---
header: 
  seq: 1196
  stamp: 
    secs: 1603732787
    nsecs: 709636482
  frame_id: "robotiq_ft_frame_id"
wrench: 
  force: 
    x: -33.1199989319
    y: -143.839996338
    z: 106.370002747
  torque: 
    x: -0.0740000009537
    y: 0.675000011921
    z: 1.3220000267
---
header: 
  seq: 1197
  stamp: 
    secs: 1603732787
    nsecs: 726187144
  frame_id: "robotiq_ft_frame_id"
wrench: 
  force: 
    x: -33.6599998474
    y: -142.919998169
    z: 106.470001221
  torque: 
    x: -0.0649999976158
    y: 0.665000021458
    z: 1.33000004292
---
header: 
  seq: 1198
  stamp: 
    secs: 1603732787
    nsecs: 742662631
  frame_id: "robotiq_ft_frame_id"
wrench: 
  force: 
    x: -33.4700012207
    y: -143.509994507
    z: 106.669998169
  torque: 
    x: -0.0670000016689
    y: 0.662999987602
    z: 1.32899999619
---
header: 
  seq: 1199
  stamp: 
    secs: 1603732787
    nsecs: 759162041
  frame_id: "robotiq_ft_frame_id"
wrench: 
  force: 
    x: -32.9199981689
    y: -144.470001221
    z: 106.339996338
  torque: 
    x: -0.0810000002384
    y: 0.670000016689
    z: 1.31299996376
---
header: 
  seq: 1200
  stamp: 
    secs: 1603732787
    nsecs: 775697104
  frame_id: "robotiq_ft_frame_id"
wrench: 
  force: 
    x: -32.6699981689
    y: -144.75
    z: 106.489997864
  torque: 
    x: -0.0799999982119
    y: 0.669000029564
    z: 1.31799995899
---
header: 
  seq: 1201
  stamp: 
    secs: 1603732787
    nsecs: 792242362
  frame_id: "robotiq_ft_frame_id"
wrench: 
  force: 
    x: -32.7999992371
    y: -145.380004883
    z: 106.290000916
  torque: 
    x: -0.0729999989271
    y: 0.666000008583
    z: 1.33200001717
---
header: 
  seq: 1202
  stamp: 
    secs: 1603732787
    nsecs: 808661260
  frame_id: "robotiq_ft_frame_id"
wrench: 
  force: 
    x: -33.5400009155
    y: -145.86000061
    z: 107.180000305
  torque: 
    x: -0.0540000014007
    y: 0.670000016689
    z: 1.33200001717
---
header: 
  seq: 1203
  stamp: 
    secs: 1603732787
    nsecs: 825025712
  frame_id: "robotiq_ft_frame_id"
wrench: 
  force: 
    x: -33.2999992371
    y: -145.070007324
    z: 106.459999084
  torque: 
    x: -0.0619999989867
    y: 0.674000024796
    z: 1.32899999619
---
header: 
  seq: 1204
  stamp: 
    secs: 1603732787
    nsecs: 837289304
  frame_id: "robotiq_ft_frame_id"
wrench: 
  force: 
    x: -32.7400016785
    y: -144.199996948
    z: 106.169998169
  torque: 
    x: -0.0570000000298
    y: 0.677999973297
    z: 1.31599998474
---
header: 
  seq: 1205
  stamp: 
    secs: 1603732787
    nsecs: 853649764
  frame_id: "robotiq_ft_frame_id"
wrench: 
  force: 
    x: -32.6899986267
    y: -144.550003052
    z: 106.059997559
  torque: 
    x: -0.0619999989867
    y: 0.677999973297
    z: 1.32099997997
---
header: 
  seq: 1206
  stamp: 
    secs: 1603732787
    nsecs: 870075106
  frame_id: "robotiq_ft_frame_id"
wrench: 
  force: 
    x: -33.1199989319
    y: -145.520004272
    z: 106.150001526
  torque: 
    x: -0.0540000014007
    y: 0.675000011921
    z: 1.30999994278
---
header: 
  seq: 1207
  stamp: 
    secs: 1603732787
    nsecs: 886424743
  frame_id: "robotiq_ft_frame_id"
wrench: 
  force: 
    x: -33.7200012207
    y: -145.699996948
    z: 106.309997559
  torque: 
    x: -0.0529999993742
    y: 0.666999995708
    z: 1.32099997997
---
header: 
  seq: 1208
  stamp: 
    secs: 1603732787
    nsecs: 902833751
  frame_id: "robotiq_ft_frame_id"
wrench: 
  force: 
    x: -32.8699989319
    y: -144.690002441
    z: 106.279998779
  torque: 
    x: -0.0649999976158
    y: 0.666999995708
    z: 1.33599996567
---
header: 
  seq: 1209
  stamp: 
    secs: 1603732787
    nsecs: 919373139
  frame_id: "robotiq_ft_frame_id"
wrench: 
  force: 
    x: -32.1800003052
    y: -144.440002441
    z: 105.959999084
  torque: 
    x: -0.0579999983311
    y: 0.671000003815
    z: 1.29799997807
---
header: 
  seq: 1210
  stamp: 
    secs: 1603732787
    nsecs: 935895880
  frame_id: "robotiq_ft_frame_id"
wrench: 
  force: 
    x: -32.0499992371
    y: -144.169998169
    z: 106.180000305
  torque: 
    x: -0.0570000000298
    y: 0.662000000477
    z: 1.29600000381
---
header: 
  seq: 1211
  stamp: 
    secs: 1603732787
    nsecs: 952424923
  frame_id: "robotiq_ft_frame_id"
wrench: 
  force: 
    x: -32.9399986267
    y: -143.990005493
    z: 106.180000305
  torque: 
    x: -0.0640000030398
    y: 0.662999987602
    z: 1.30099999905
---
header: 
  seq: 1212
  stamp: 
    secs: 1603732787
    nsecs: 968943789
  frame_id: "robotiq_ft_frame_id"
wrench: 
  force: 
    x: -33.3800010681
    y: -143.800003052
    z: 106.13999939
  torque: 
    x: -0.070000000298
    y: 0.677999973297
    z: 1.30599999428
---
header: 
  seq: 1213
  stamp: 
    secs: 1603732787
    nsecs: 981344516
  frame_id: "robotiq_ft_frame_id"
wrench: 
  force: 
    x: -33.2900009155
    y: -143.729995728
    z: 105.519996643
  torque: 
    x: -0.0619999989867
    y: 0.684000015259
    z: 1.31500005722
---
header: 
  seq: 1214
  stamp: 
    secs: 1603732787
    nsecs: 998222188
  frame_id: "robotiq_ft_frame_id"
wrench: 
  force: 
    x: -31.9099998474
    y: -142.589996338
    z: 105.699996948
  torque: 
    x: -0.0509999990463
    y: 0.675999999046
    z: 1.30400002003
---
header: 
  seq: 1215
  stamp: 
    secs: 1603732788
    nsecs:  14622982
  frame_id: "robotiq_ft_frame_id"
wrench: 
  force: 
    x: -32.3499984741
    y: -142.419998169
    z: 106.410003662
  torque: 
    x: -0.0590000003576
    y: 0.680999994278
    z: 1.30700004101
---
header: 
  seq: 1216
  stamp: 
    secs: 1603732788
    nsecs:  31142093
  frame_id: "robotiq_ft_frame_id"
wrench: 
  force: 
    x: -33.8400001526
    y: -143.339996338
    z: 106.180000305
  torque: 
    x: -0.0410000011325
    y: 0.667999982834
    z: 1.30400002003
---
header: 
  seq: 1217
  stamp: 
    secs: 1603732788
    nsecs:  47754601
  frame_id: "robotiq_ft_frame_id"
wrench: 
  force: 
    x: -34.5099983215
    y: -144.190002441
    z: 106.0
  torque: 
    x: -0.0560000017285
    y: 0.670000016689
    z: 1.29799997807
---
header: 
  seq: 1218
  stamp: 
    secs: 1603732788
    nsecs:  64256513
  frame_id: "robotiq_ft_frame_id"
wrench: 
  force: 
    x: -34.6399993896
    y: -144.179992676
    z: 105.769996643
  torque: 
    x: -0.0560000017285
    y: 0.670000016689
    z: 1.2879999876
---
header: 
  seq: 1219
  stamp: 
    secs: 1603732788
    nsecs:  80811790
  frame_id: "robotiq_ft_frame_id"
wrench: 
  force: 
    x: -34.4199981689
    y: -143.509994507
    z: 105.599998474
  torque: 
    x: -0.0560000017285
    y: 0.683000028133
    z: 1.2990000248
---
header: 
  seq: 1220
  stamp: 
    secs: 1603732788
    nsecs:  93226169
  frame_id: "robotiq_ft_frame_id"
wrench: 
  force: 
    x: -33.8600006104
    y: -143.929992676
    z: 105.669998169
  torque: 
    x: -0.0489999987185
    y: 0.681999981403
    z: 1.29200005531
---
header: 
  seq: 1221
  stamp: 
    secs: 1603732788
    nsecs: 109780940
  frame_id: "robotiq_ft_frame_id"
wrench: 
  force: 
    x: -33.8100013733
    y: -144.940002441
    z: 105.510002136
  torque: 
    x: -0.0450000017881
    y: 0.681999981403
    z: 1.32899999619
---
header: 
  seq: 1222
  stamp: 
    secs: 1603732788
    nsecs: 126329969
  frame_id: "robotiq_ft_frame_id"
wrench: 
  force: 
    x: -33.2099990845
    y: -144.630004883
    z: 105.510002136
  torque: 
    x: -0.0419999994338
    y: 0.672999978065
    z: 1.3259999752
---
header: 
  seq: 1223
  stamp: 
    secs: 1603732788
    nsecs: 142735434
  frame_id: "robotiq_ft_frame_id"
wrench: 
  force: 
    x: -33.0299987793
    y: -144.229995728
    z: 105.370002747
  torque: 
    x: -0.0460000000894
    y: 0.674000024796
    z: 1.32899999619
---
header: 
  seq: 1224
  stamp: 
    secs: 1603732788
    nsecs: 159263261
  frame_id: "robotiq_ft_frame_id"
wrench: 
  force: 
    x: -33.2999992371
    y: -143.800003052
    z: 105.540000916
  torque: 
    x: -0.0740000009537
    y: 0.68900001049
    z: 1.32000005245
---
header: 
  seq: 1225
  stamp: 
    secs: 1603732788
    nsecs: 175812842
  frame_id: "robotiq_ft_frame_id"
wrench: 
  force: 
    x: -33.2000007629
    y: -144.270004272
    z: 105.800003052
  torque: 
    x: -0.0450000017881
    y: 0.681999981403
    z: 1.31599998474
---
header: 
  seq: 1226
  stamp: 
    secs: 1603732788
    nsecs: 192359659
  frame_id: "robotiq_ft_frame_id"
wrench: 
  force: 
    x: -33.4099998474
    y: -143.130004883
    z: 105.239997864
  torque: 
    x: -0.0450000017881
    y: 0.680999994278
    z: 1.31599998474
---
header: 
  seq: 1227
  stamp: 
    secs: 1603732788
    nsecs: 208908971
  frame_id: "robotiq_ft_frame_id"
wrench: 
  force: 
    x: -32.7599983215
    y: -143.149993896
    z: 105.879997253
  torque: 
    x: -0.0419999994338
    y: 0.680999994278
    z: 1.2990000248
---
header: 
  seq: 1228
  stamp: 
    secs: 1603732788
    nsecs: 221231216
  frame_id: "robotiq_ft_frame_id"
wrench: 
  force: 
    x: -33.4000015259
    y: -143.770004272
    z: 105.779998779
  torque: 
    x: -0.0509999990463
    y: 0.683000028133
    z: 1.31400001049
---
header: 
  seq: 1229
  stamp: 
    secs: 1603732788
    nsecs: 237785650
  frame_id: "robotiq_ft_frame_id"
wrench: 
  force: 
    x: -33.7299995422
    y: -144.039993286
    z: 105.190002441
  torque: 
    x: -0.0460000000894
    y: 0.680999994278
    z: 1.32899999619
---
header: 
  seq: 1230
  stamp: 
    secs: 1603732788
    nsecs: 254284316
  frame_id: "robotiq_ft_frame_id"
wrench: 
  force: 
    x: -33.7900009155
    y: -143.929992676
    z: 105.629997253
  torque: 
    x: -0.0500000007451
    y: 0.680999994278
    z: 1.33200001717
---
header: 
  seq: 1231
  stamp: 
    secs: 1603732788
    nsecs: 270709266
  frame_id: "robotiq_ft_frame_id"
wrench: 
  force: 
    x: -33.6500015259
    y: -144.039993286
    z: 106.019996643
  torque: 
    x: -0.054999999702
    y: 0.676999986172
    z: 1.31799995899
---
header: 
  seq: 1232
  stamp: 
    secs: 1603732788
    nsecs: 287241686
  frame_id: "robotiq_ft_frame_id"
wrench: 
  force: 
    x: -32.6500015259
    y: -141.509994507
    z: 106.129997253
  torque: 
    x: -0.0480000004172
    y: 0.674000024796
    z: 1.30400002003
---
header: 
  seq: 1233
  stamp: 
    secs: 1603732788
    nsecs: 303804159
  frame_id: "robotiq_ft_frame_id"
wrench: 
  force: 
    x: -33.5099983215
    y: -142.38999939
    z: 105.830001831
  torque: 
    x: -0.0320000015199
    y: 0.679000020027
    z: 1.30900001526
---
header: 
  seq: 1234
  stamp: 
    secs: 1603732788
    nsecs: 320292688
  frame_id: "robotiq_ft_frame_id"
wrench: 
  force: 
    x: -32.5600013733
    y: -143.88999939
    z: 105.790000916
  torque: 
    x: -0.0410000011325
    y: 0.674000024796
    z: 1.31299996376
---
header: 
  seq: 1235
  stamp: 
    secs: 1603732788
    nsecs: 336746356
  frame_id: "robotiq_ft_frame_id"
wrench: 
  force: 
    x: -33.6899986267
    y: -142.630004883
    z: 106.040000916
  torque: 
    x: -0.0540000014007
    y: 0.679000020027
    z: 1.32700002193
---
header: 
  seq: 1236
  stamp: 
    secs: 1603732788
    nsecs: 349157321
  frame_id: "robotiq_ft_frame_id"
wrench: 
  force: 
    x: -32.8199996948
    y: -143.149993896
    z: 106.069999695
  torque: 
    x: -0.0450000017881
    y: 0.681999981403
    z: 1.32400000095
---
header: 
  seq: 1237
  stamp: 
    secs: 1603732788
    nsecs: 365662246
  frame_id: "robotiq_ft_frame_id"
wrench: 
  force: 
    x: -32.8800010681
    y: -143.690002441
    z: 105.940002441
  torque: 
    x: -0.0450000017881
    y: 0.679000020027
    z: 1.32299995422
---
header: 
  seq: 1238
  stamp: 
    secs: 1603732788
    nsecs: 382206362
  frame_id: "robotiq_ft_frame_id"
wrench: 
  force: 
    x: -32.9799995422
    y: -144.080001831
    z: 105.580001831
  torque: 
    x: -0.0480000004172
    y: 0.67199999094
    z: 1.35199999809
---
header: 
  seq: 1239
  stamp: 
    secs: 1603732788
    nsecs: 398656117
  frame_id: "robotiq_ft_frame_id"
wrench: 
  force: 
    x: -33.4199981689
    y: -142.979995728
    z: 106.199996948
  torque: 
    x: -0.0419999994338
    y: 0.676999986172
    z: 1.32400000095
---
header: 
  seq: 1240
  stamp: 
    secs: 1603732788
    nsecs: 415113232
  frame_id: "robotiq_ft_frame_id"
wrench: 
  force: 
    x: -33.5
    y: -142.869995117
    z: 106.319999695
  torque: 
    x: -0.0579999983311
    y: 0.689999997616
    z: 1.32099997997
---
header: 
  seq: 1241
  stamp: 
    secs: 1603732788
    nsecs: 431623106
  frame_id: "robotiq_ft_frame_id"
wrench: 
  force: 
    x: -33.25
    y: -143.75
    z: 105.980003357
  torque: 
    x: -0.0590000003576
    y: 0.680999994278
    z: 1.31799995899
---
header: 
  seq: 1242
  stamp: 
    secs: 1603732788
    nsecs: 448169382
  frame_id: "robotiq_ft_frame_id"
wrench: 
  force: 
    x: -32.6300010681
    y: -144.130004883
    z: 105.879997253
  torque: 
    x: -0.0529999993742
    y: 0.683000028133
    z: 1.33399999142
---
header: 
  seq: 1243
  stamp: 
    secs: 1603732788
    nsecs: 464552755
  frame_id: "robotiq_ft_frame_id"
wrench: 
  force: 
    x: -32.8699989319
    y: -144.539993286
    z: 106.150001526
  torque: 
    x: -0.0500000007451
    y: 0.683000028133
    z: 1.3409999609
---
header: 
  seq: 1244
  stamp: 
    secs: 1603732788
    nsecs: 481015578
  frame_id: "robotiq_ft_frame_id"
wrench: 
  force: 
    x: -33.1599998474
    y: -144.979995728
    z: 106.370002747
  torque: 
    x: -0.0500000007451
    y: 0.680000007153
    z: 1.34200000763
---
header: 
  seq: 1245
  stamp: 
    secs: 1603732788
    nsecs: 493426175
  frame_id: "robotiq_ft_frame_id"
wrench: 
  force: 
    x: -33.3499984741
    y: -145.009994507
    z: 106.169998169
  torque: 
    x: -0.0500000007451
    y: 0.683000028133
    z: 1.32500004768
---
header: 
  seq: 1246
  stamp: 
    secs: 1603732788
    nsecs: 509909050
  frame_id: "robotiq_ft_frame_id"
wrench: 
  force: 
    x: -32.0499992371
    y: -144.059997559
    z: 105.930000305
  torque: 
    x: -0.0529999993742
    y: 0.677999973297
    z: 1.30700004101
---
header: 
  seq: 1247
  stamp: 
    secs: 1603732788
    nsecs: 526448586
  frame_id: "robotiq_ft_frame_id"
wrench: 
  force: 
    x: -32.6300010681
    y: -143.550003052
    z: 106.440002441
  torque: 
    x: -0.0529999993742
    y: 0.670000016689
    z: 1.30999994278
---
header: 
  seq: 1248
  stamp: 
    secs: 1603732788
    nsecs: 542910945
  frame_id: "robotiq_ft_frame_id"
wrench: 
  force: 
    x: -32.8899993896
    y: -143.479995728
    z: 106.220001221
  torque: 
    x: -0.0540000014007
    y: 0.674000024796
    z: 1.32099997997
---
header: 
  seq: 1249
  stamp: 
    secs: 1603732788
    nsecs: 559370136
  frame_id: "robotiq_ft_frame_id"
wrench: 
  force: 
    x: -33.7400016785
    y: -144.289993286
    z: 105.86000061
  torque: 
    x: -0.0649999976158
    y: 0.680999994278
    z: 1.30599999428
---
header: 
  seq: 1250
  stamp: 
    secs: 1603732788
    nsecs: 575932415
  frame_id: "robotiq_ft_frame_id"
wrench: 
  force: 
    x: -33.8800010681
    y: -144.509994507
    z: 105.86000061
  torque: 
    x: -0.0560000017285
    y: 0.676999986172
    z: 1.30599999428
---
header: 
  seq: 1251
  stamp: 
    secs: 1603732788
    nsecs: 592432636
  frame_id: "robotiq_ft_frame_id"
wrench: 
  force: 
    x: -32.8100013733
    y: -144.720001221
    z: 106.050003052
  torque: 
    x: -0.0500000007451
    y: 0.680000007153
    z: 1.30900001526
---
header: 
  seq: 1252
  stamp: 
    secs: 1603732788
    nsecs: 608934928
  frame_id: "robotiq_ft_frame_id"
wrench: 
  force: 
    x: -33.3499984741
    y: -144.369995117
    z: 106.279998779
  torque: 
    x: -0.0570000000298
    y: 0.68599998951
    z: 1.32799994946
---
header: 
  seq: 1253
  stamp: 
    secs: 1603732788
    nsecs: 621319954
  frame_id: "robotiq_ft_frame_id"
wrench: 
  force: 
    x: -34.2099990845
    y: -145.25
    z: 106.089996338
  torque: 
    x: -0.0540000014007
    y: 0.685000002384
    z: 1.3259999752
---
header: 
  seq: 1254
  stamp: 
    secs: 1603732788
    nsecs: 637822084
  frame_id: "robotiq_ft_frame_id"
wrench: 
  force: 
    x: -33.9700012207
    y: -143.809997559
    z: 106.239997864
  torque: 
    x: -0.0610000006855
    y: 0.684000015259
    z: 1.31500005722
---
header: 
  seq: 1255
  stamp: 
    secs: 1603732788
    nsecs: 654368450
  frame_id: "robotiq_ft_frame_id"
wrench: 
  force: 
    x: -33.7900009155
    y: -143.779998779
    z: 106.510002136
  torque: 
    x: -0.0759999975562
    y: 0.690999984741
    z: 1.3220000267
---
header: 
  seq: 1256
  stamp: 
    secs: 1603732788
    nsecs: 670837444
  frame_id: "robotiq_ft_frame_id"
wrench: 
  force: 
    x: -34.9599990845
    y: -144.25
    z: 105.959999084
  torque: 
    x: -0.0570000000298
    y: 0.681999981403
    z: 1.35699999332
---
header: 
  seq: 1257
  stamp: 
    secs: 1603732788
    nsecs: 687378887
  frame_id: "robotiq_ft_frame_id"
wrench: 
  force: 
    x: -33.8600006104
    y: -142.279998779
    z: 106.319999695
  torque: 
    x: -0.0610000006855
    y: 0.683000028133
    z: 1.3370000124
---
header: 
  seq: 1258
  stamp: 
    secs: 1603732788
    nsecs: 703936806
  frame_id: "robotiq_ft_frame_id"
wrench: 
  force: 
    x: -34.1800003052
    y: -142.479995728
    z: 106.38999939
  torque: 
    x: -0.0610000006855
    y: 0.68599998951
    z: 1.32099997997
---
header: 
  seq: 1259
  stamp: 
    secs: 1603732788
    nsecs: 720469814
  frame_id: "robotiq_ft_frame_id"
wrench: 
  force: 
    x: -35.0800018311
    y: -143.850006104
    z: 105.879997253
  torque: 
    x: -0.0390000008047
    y: 0.681999981403
    z: 1.33099997044
---
header: 
  seq: 1260
  stamp: 
    secs: 1603732788
    nsecs: 737007095
  frame_id: "robotiq_ft_frame_id"
wrench: 
  force: 
    x: -35.1699981689
    y: -143.940002441
    z: 105.839996338
  torque: 
    x: -0.054999999702
    y: 0.683000028133
    z: 1.32700002193
---
header: 
  seq: 1261
  stamp: 
    secs: 1603732788
    nsecs: 749342491
  frame_id: "robotiq_ft_frame_id"
wrench: 
  force: 
    x: -34.2200012207
    y: -143.36000061
    z: 105.970001221
  torque: 
    x: -0.0430000014603
    y: 0.676999986172
    z: 1.31900000572
---
header: 
  seq: 1262
  stamp: 
    secs: 1603732788
    nsecs: 765849751
  frame_id: "robotiq_ft_frame_id"
wrench: 
  force: 
    x: -34.7000007629
    y: -143.380004883
    z: 106.230003357
  torque: 
    x: -0.054999999702
    y: 0.68599998951
    z: 1.34800004959
---
header: 
  seq: 1263
  stamp: 
    secs: 1603732788
    nsecs: 782404540
  frame_id: "robotiq_ft_frame_id"
wrench: 
  force: 
    x: -34.3600006104
    y: -142.600006104
    z: 106.839996338
  torque: 
    x: -0.0630000010133
    y: 0.690999984741
    z: 1.33399999142
---
header: 
  seq: 1264
  stamp: 
    secs: 1603732788
    nsecs: 798869984
  frame_id: "robotiq_ft_frame_id"
wrench: 
  force: 
    x: -34.5400009155
    y: -143.190002441
    z: 106.36000061
  torque: 
    x: -0.0570000000298
    y: 0.689999997616
    z: 1.33000004292
---
header: 
  seq: 1265
  stamp: 
    secs: 1603732788
    nsecs: 815351393
  frame_id: "robotiq_ft_frame_id"
wrench: 
  force: 
    x: -34.9399986267
    y: -143.199996948
    z: 106.290000916
  torque: 
    x: -0.0520000010729
    y: 0.694000005722
    z: 1.32700002193
---
header: 
  seq: 1266
  stamp: 
    secs: 1603732788
    nsecs: 831886836
  frame_id: "robotiq_ft_frame_id"
wrench: 
  force: 
    x: -34.8899993896
    y: -143.330001831
    z: 106.519996643
  torque: 
    x: -0.070000000298
    y: 0.708000004292
    z: 1.33599996567
---
header: 
  seq: 1267
  stamp: 
    secs: 1603732788
    nsecs: 848340182
  frame_id: "robotiq_ft_frame_id"
wrench: 
  force: 
    x: -34.0499992371
    y: -143.440002441
    z: 106.269996643
  torque: 
    x: -0.0689999982715
    y: 0.707000017166
    z: 1.31900000572
---
header: 
  seq: 1268
  stamp: 
    secs: 1603732788
    nsecs: 864814004
  frame_id: "robotiq_ft_frame_id"
wrench: 
  force: 
    x: -33.7999992371
    y: -143.080001831
    z: 106.650001526
  torque: 
    x: -0.0769999995828
    y: 0.709999978542
    z: 1.30700004101
---
header: 
  seq: 1269
  stamp: 
    secs: 1603732788
    nsecs: 877228005
  frame_id: "robotiq_ft_frame_id"
wrench: 
  force: 
    x: -34.1800003052
    y: -143.350006104
    z: 106.050003052
  torque: 
    x: -0.0520000010729
    y: 0.697000026703
    z: 1.30499994755
---
header: 
  seq: 1270
  stamp: 
    secs: 1603732788
    nsecs: 893765614
  frame_id: "robotiq_ft_frame_id"
wrench: 
  force: 
    x: -33.7299995422
    y: -143.690002441
    z: 106.569999695
  torque: 
    x: -0.0469999983907
    y: 0.694000005722
    z: 1.3029999733
---
header: 
  seq: 1271
  stamp: 
    secs: 1603732788
    nsecs: 910303086
  frame_id: "robotiq_ft_frame_id"
wrench: 
  force: 
    x: -33.1800003052
    y: -142.899993896
    z: 106.180000305
  torque: 
    x: -0.0560000017285
    y: 0.68599998951
    z: 1.29799997807
---
header: 
  seq: 1272
  stamp: 
    secs: 1603732788
    nsecs: 926761534
  frame_id: "robotiq_ft_frame_id"
wrench: 
  force: 
    x: -34.3800010681
    y: -143.529998779
    z: 106.0
  torque: 
    x: -0.0469999983907
    y: 0.688000023365
    z: 1.30700004101
---
header: 
  seq: 1273
  stamp: 
    secs: 1603732788
    nsecs: 943260063
  frame_id: "robotiq_ft_frame_id"
wrench: 
  force: 
    x: -34.4500007629
    y: -143.490005493
    z: 105.680000305
  torque: 
    x: -0.0419999994338
    y: 0.68900001049
    z: 1.3029999733
---
header: 
  seq: 1274
  stamp: 
    secs: 1603732788
    nsecs: 959777851
  frame_id: "robotiq_ft_frame_id"
wrench: 
  force: 
    x: -34.5900001526
    y: -144.229995728
    z: 105.769996643
  torque: 
    x: -0.0370000004768
    y: 0.691999971867
    z: 1.30400002003
---
header: 
  seq: 1275
  stamp: 
    secs: 1603732788
    nsecs: 976299685
  frame_id: "robotiq_ft_frame_id"
wrench: 
  force: 
    x: -34.6100006104
    y: -144.130004883
    z: 105.980003357
  torque: 
    x: -0.0410000011325
    y: 0.685000002384
    z: 1.32099997997
---
header: 
  seq: 1276
  stamp: 
    secs: 1603732788
    nsecs: 992835237
  frame_id: "robotiq_ft_frame_id"
wrench: 
  force: 
    x: -34.2999992371
    y: -143.330001831
    z: 106.059997559
  torque: 
    x: -0.0540000014007
    y: 0.679000020027
    z: 1.33000004292
---
header: 
  seq: 1277
  stamp: 
    secs: 1603732789
    nsecs:   5254077
  frame_id: "robotiq_ft_frame_id"
wrench: 
  force: 
    x: -34.6599998474
    y: -144.490005493
    z: 106.069999695
  torque: 
    x: -0.0529999993742
    y: 0.677999973297
    z: 1.31900000572
---
header: 
  seq: 1278
  stamp: 
    secs: 1603732789
    nsecs:  21808320
  frame_id: "robotiq_ft_frame_id"
wrench: 
  force: 
    x: -34.5400009155
    y: -144.660003662
    z: 105.940002441
  torque: 
    x: -0.0509999990463
    y: 0.680000007153
    z: 1.33399999142
---
header: 
  seq: 1279
  stamp: 
    secs: 1603732789
    nsecs:  38361162
  frame_id: "robotiq_ft_frame_id"
wrench: 
  force: 
    x: -34.3499984741
    y: -144.559997559
    z: 106.169998169
  torque: 
    x: -0.0540000014007
    y: 0.679000020027
    z: 1.33200001717
---
header: 
  seq: 1280
  stamp: 
    secs: 1603732789
    nsecs:  54803173
  frame_id: "robotiq_ft_frame_id"
wrench: 
  force: 
    x: -34.4000015259
    y: -144.490005493
    z: 106.339996338
  torque: 
    x: -0.0560000017285
    y: 0.683000028133
    z: 1.32700002193
---
header: 
  seq: 1281
  stamp: 
    secs: 1603732789
    nsecs:  71353197
  frame_id: "robotiq_ft_frame_id"
wrench: 
  force: 
    x: -34.0800018311
    y: -144.240005493
    z: 106.290000916
  torque: 
    x: -0.0489999987185
    y: 0.676999986172
    z: 1.31500005722
---
header: 
  seq: 1282
  stamp: 
    secs: 1603732789
    nsecs:  87889850
  frame_id: "robotiq_ft_frame_id"
wrench: 
  force: 
    x: -33.5299987793
    y: -143.850006104
    z: 106.36000061
  torque: 
    x: -0.0590000003576
    y: 0.676999986172
    z: 1.3259999752
---
header: 
  seq: 1283
  stamp: 
    secs: 1603732789
    nsecs: 104417034
  frame_id: "robotiq_ft_frame_id"
wrench: 
  force: 
    x: -33.4700012207
    y: -144.080001831
    z: 105.959999084
  torque: 
    x: -0.0489999987185
    y: 0.676999986172
    z: 1.33000004292
---
header: 
  seq: 1284
  stamp: 
    secs: 1603732789
    nsecs: 120863599
  frame_id: "robotiq_ft_frame_id"
wrench: 
  force: 
    x: -34.3899993896
    y: -143.619995117
    z: 106.029998779
  torque: 
    x: -0.0590000003576
    y: 0.676999986172
    z: 1.31400001049
---
header: 
  seq: 1285
  stamp: 
    secs: 1603732789
    nsecs: 133306169
  frame_id: "robotiq_ft_frame_id"
wrench: 
  force: 
    x: -34.9000015259
    y: -143.679992676
    z: 105.660003662
  torque: 
    x: -0.0570000000298
    y: 0.680999994278
    z: 1.31700003147
---
header: 
  seq: 1286
  stamp: 
    secs: 1603732789
    nsecs: 149853957
  frame_id: "robotiq_ft_frame_id"
wrench: 
  force: 
    x: -34.5999984741
    y: -143.419998169
    z: 106.040000916
  torque: 
    x: -0.0390000008047
    y: 0.68599998951
    z: 1.29100000858
---
header: 
  seq: 1287
  stamp: 
    secs: 1603732789
    nsecs: 166377864
  frame_id: "robotiq_ft_frame_id"
wrench: 
  force: 
    x: -34.6500015259
    y: -143.25
    z: 105.910003662
  torque: 
    x: -0.054999999702
    y: 0.68599998951
    z: 1.29400002956
---
header: 
  seq: 1288
  stamp: 
    secs: 1603732789
    nsecs: 182813118
  frame_id: "robotiq_ft_frame_id"
wrench: 
  force: 
    x: -34.6500015259
    y: -143.320007324
    z: 106.050003052
  torque: 
    x: -0.0529999993742
    y: 0.68599998951
    z: 1.29100000858
---
header: 
  seq: 1289
  stamp: 
    secs: 1603732789
    nsecs: 199373186
  frame_id: "robotiq_ft_frame_id"
wrench: 
  force: 
    x: -34.2299995422
    y: -142.75
    z: 106.370002747
  torque: 
    x: -0.0610000006855
    y: 0.674000024796
    z: 1.30599999428
---
header: 
  seq: 1290
  stamp: 
    secs: 1603732789
    nsecs: 215922833
  frame_id: "robotiq_ft_frame_id"
wrench: 
  force: 
    x: -33.9700012207
    y: -142.979995728
    z: 105.959999084
  torque: 
    x: -0.0540000014007
    y: 0.674000024796
    z: 1.30700004101
---
header: 
  seq: 1291
  stamp: 
    secs: 1603732789
    nsecs: 232407802
  frame_id: "robotiq_ft_frame_id"
wrench: 
  force: 
    x: -34.3899993896
    y: -141.919998169
    z: 105.319999695
  torque: 
    x: -0.0610000006855
    y: 0.680999994278
    z: 1.30200004578
---
header: 
  seq: 1292
  stamp: 
    secs: 1603732789
    nsecs: 248941466
  frame_id: "robotiq_ft_frame_id"
wrench: 
  force: 
    x: -34.6699981689
    y: -142.830001831
    z: 105.739997864
  torque: 
    x: -0.0439999997616
    y: 0.672999978065
    z: 1.29400002956
---
header: 
  seq: 1293
  stamp: 
    secs: 1603732789
    nsecs: 261298022
  frame_id: "robotiq_ft_frame_id"
wrench: 
  force: 
    x: -34.0600013733
    y: -142.86000061
    z: 105.660003662
  torque: 
    x: -0.0390000008047
    y: 0.669000029564
    z: 1.30499994755
---
header: 
  seq: 1294
  stamp: 
    secs: 1603732789
    nsecs: 277801667
  frame_id: "robotiq_ft_frame_id"
wrench: 
  force: 
    x: -34.1500015259
    y: -143.619995117
    z: 105.819999695
  torque: 
    x: -0.0469999983907
    y: 0.666000008583
    z: 1.31599998474
---
header: 
  seq: 1295
  stamp: 
    secs: 1603732789
    nsecs: 294345119
  frame_id: "robotiq_ft_frame_id"
wrench: 
  force: 
    x: -34.1199989319
    y: -144.190002441
    z: 105.830001831
  torque: 
    x: -0.0540000014007
    y: 0.662999987602
    z: 1.31299996376
---
header: 
  seq: 1296
  stamp: 
    secs: 1603732789
    nsecs: 310778363
  frame_id: "robotiq_ft_frame_id"
wrench: 
  force: 
    x: -33.4500007629
    y: -142.75
    z: 105.980003357
  torque: 
    x: -0.0649999976158
    y: 0.671000003815
    z: 1.31799995899
---
header: 
  seq: 1297
  stamp: 
    secs: 1603732789
    nsecs: 327311019
  frame_id: "robotiq_ft_frame_id"
wrench: 
  force: 
    x: -34.8300018311
    y: -144.080001831
    z: 106.13999939
  torque: 
    x: -0.0590000003576
    y: 0.683000028133
    z: 1.29400002956
---
header: 
  seq: 1298
  stamp: 
    secs: 1603732789
    nsecs: 343800123
  frame_id: "robotiq_ft_frame_id"
wrench: 
  force: 
    x: -35.0
    y: -144.529998779
    z: 106.13999939
  torque: 
    x: -0.0649999976158
    y: 0.680999994278
    z: 1.29999995232
---
header: 
  seq: 1299
  stamp: 
    secs: 1603732789
    nsecs: 360309934
  frame_id: "robotiq_ft_frame_id"
wrench: 
  force: 
    x: -34.8199996948
    y: -144.410003662
    z: 106.059997559
  torque: 
    x: -0.0489999987185
    y: 0.684000015259
    z: 1.32500004768
---
header: 
  seq: 1300
  stamp: 
    secs: 1603732789
    nsecs: 376854224
  frame_id: "robotiq_ft_frame_id"
wrench: 
  force: 
    x: -34.4500007629
    y: -144.36000061
    z: 105.88999939
  torque: 
    x: -0.0460000000894
    y: 0.691999971867
    z: 1.3259999752
---
header: 
  seq: 1301
  stamp: 
    secs: 1603732789
    nsecs: 389346897
  frame_id: "robotiq_ft_frame_id"
wrench: 
  force: 
    x: -33.7000007629
    y: -143.350006104
    z: 106.080001831
  torque: 
    x: -0.0570000000298
    y: 0.681999981403
    z: 1.30200004578
---
header: 
  seq: 1302
  stamp: 
    secs: 1603732789
    nsecs: 405873361
  frame_id: "robotiq_ft_frame_id"
wrench: 
  force: 
    x: -33.0099983215
    y: -143.119995117
    z: 106.069999695
  torque: 
    x: -0.0570000000298
    y: 0.660000026226
    z: 1.29600000381
---
header: 
  seq: 1303
  stamp: 
    secs: 1603732789
    nsecs: 422321769
  frame_id: "robotiq_ft_frame_id"
wrench: 
  force: 
    x: -33.7700004578
    y: -144.38999939
    z: 106.11000061
  torque: 
    x: -0.0289999991655
    y: 0.666000008583
    z: 1.29700005054
---
header: 
  seq: 1304
  stamp: 
    secs: 1603732789
    nsecs: 438994351
  frame_id: "robotiq_ft_frame_id"
wrench: 
  force: 
    x: -33.5900001526
    y: -143.86000061
    z: 105.980003357
  torque: 
    x: -0.0480000004172
    y: 0.67199999094
    z: 1.30799996853
---
header: 
  seq: 1305
  stamp: 
    secs: 1603732789
    nsecs: 455448023
  frame_id: "robotiq_ft_frame_id"
wrench: 
  force: 
    x: -33.0200004578
    y: -143.529998779
    z: 106.339996338
  torque: 
    x: -0.0500000007451
    y: 0.671000003815
    z: 1.31299996376
---
header: 
  seq: 1306
  stamp: 
    secs: 1603732789
    nsecs: 471948986
  frame_id: "robotiq_ft_frame_id"
wrench: 
  force: 
    x: -33.1399993896
    y: -143.820007324
    z: 106.279998779
  torque: 
    x: -0.0710000023246
    y: 0.675999999046
    z: 1.31799995899
---
header: 
  seq: 1307
  stamp: 
    secs: 1603732789
    nsecs: 488470150
  frame_id: "robotiq_ft_frame_id"
wrench: 
  force: 
    x: -33.9399986267
    y: -144.850006104
    z: 106.199996948
  torque: 
    x: -0.0579999983311
    y: 0.685000002384
    z: 1.30799996853
---
header: 
  seq: 1308
  stamp: 
    secs: 1603732789
    nsecs: 504997529
  frame_id: "robotiq_ft_frame_id"
wrench: 
  force: 
    x: -33.9700012207
    y: -145.029998779
    z: 106.040000916
  torque: 
    x: -0.0520000010729
    y: 0.683000028133
    z: 1.31200003624
---
header: 
  seq: 1309
  stamp: 
    secs: 1603732789
    nsecs: 517288547
  frame_id: "robotiq_ft_frame_id"
wrench: 
  force: 
    x: -34.5099983215
    y: -145.149993896
    z: 106.150001526
  torque: 
    x: -0.0450000017881
    y: 0.672999978065
    z: 1.31099998951
---
header: 
  seq: 1310
  stamp: 
    secs: 1603732789
    nsecs: 533845144
  frame_id: "robotiq_ft_frame_id"
wrench: 
  force: 
    x: -35.0699996948
    y: -145.190002441
    z: 106.0
  torque: 
    x: -0.0560000017285
    y: 0.675999999046
    z: 1.30400002003
---
header: 
  seq: 1311
  stamp: 
    secs: 1603732789
    nsecs: 550336578
  frame_id: "robotiq_ft_frame_id"
wrench: 
  force: 
    x: -33.0699996948
    y: -142.949996948
    z: 105.690002441
  torque: 
    x: -0.0500000007451
    y: 0.677999973297
    z: 1.29299998283
---
header: 
  seq: 1312
  stamp: 
    secs: 1603732789
    nsecs: 566802822
  frame_id: "robotiq_ft_frame_id"
wrench: 
  force: 
    x: -33.6599998474
    y: -144.199996948
    z: 105.800003052
  torque: 
    x: -0.054999999702
    y: 0.675999999046
    z: 1.28999996185
---
header: 
  seq: 1313
  stamp: 
    secs: 1603732789
    nsecs: 583347689
  frame_id: "robotiq_ft_frame_id"
wrench: 
  force: 
    x: -33.4000015259
    y: -143.919998169
    z: 105.839996338
  torque: 
    x: -0.0590000003576
    y: 0.680000007153
    z: 1.29200005531
---
header: 
  seq: 1314
  stamp: 
    secs: 1603732789
    nsecs: 599897565
  frame_id: "robotiq_ft_frame_id"
wrench: 
  force: 
    x: -33.6800003052
    y: -143.36000061
    z: 106.269996643
  torque: 
    x: -0.054999999702
    y: 0.684000015259
    z: 1.29799997807
---
header: 
  seq: 1315
  stamp: 
    secs: 1603732789
    nsecs: 616357249
  frame_id: "robotiq_ft_frame_id"
wrench: 
  force: 
    x: -33.4700012207
    y: -143.570007324
    z: 105.819999695
  torque: 
    x: -0.0529999993742
    y: 0.680999994278
    z: 1.31599998474
---
header: 
  seq: 1316
  stamp: 
    secs: 1603732789
    nsecs: 632892025
  frame_id: "robotiq_ft_frame_id"
wrench: 
  force: 
    x: -33.7700004578
    y: -143.410003662
    z: 105.629997253
  torque: 
    x: -0.0529999993742
    y: 0.676999986172
    z: 1.3029999733
---
header: 
  seq: 1317
  stamp: 
    secs: 1603732789
    nsecs: 645291361
  frame_id: "robotiq_ft_frame_id"
wrench: 
  force: 
    x: -35.1500015259
    y: -143.699996948
    z: 106.069999695
  torque: 
    x: -0.0529999993742
    y: 0.674000024796
    z: 1.32500004768
---
header: 
  seq: 1318
  stamp: 
    secs: 1603732789
    nsecs: 661833145
  frame_id: "robotiq_ft_frame_id"
wrench: 
  force: 
    x: -34.9099998474
    y: -142.960006714
    z: 106.029998779
  torque: 
    x: -0.054999999702
    y: 0.676999986172
    z: 1.3220000267
---
header: 
  seq: 1319
  stamp: 
    secs: 1603732789
    nsecs: 678293566
  frame_id: "robotiq_ft_frame_id"
wrench: 
  force: 
    x: -35.1500015259
    y: -142.660003662
    z: 106.260002136
  torque: 
    x: -0.0540000014007
    y: 0.675999999046
    z: 1.31400001049
---
header: 
  seq: 1320
  stamp: 
    secs: 1603732789
    nsecs: 694746470
  frame_id: "robotiq_ft_frame_id"
wrench: 
  force: 
    x: -35.4399986267
    y: -143.38999939
    z: 105.720001221
  torque: 
    x: -0.054999999702
    y: 0.671000003815
    z: 1.31200003624
---
header: 
  seq: 1321
  stamp: 
    secs: 1603732789
    nsecs: 711271077
  frame_id: "robotiq_ft_frame_id"
wrench: 
  force: 
    x: -35.4399986267
    y: -144.259994507
    z: 105.779998779
  torque: 
    x: -0.0590000003576
    y: 0.680999994278
    z: 1.29799997807
---
header: 
  seq: 1322
  stamp: 
    secs: 1603732789
    nsecs: 727756740
  frame_id: "robotiq_ft_frame_id"
wrench: 
  force: 
    x: -35.0900001526
    y: -144.839996338
    z: 106.059997559
  torque: 
    x: -0.0560000017285
    y: 0.68599998951
    z: 1.31799995899
---
header: 
  seq: 1323
  stamp: 
    secs: 1603732789
    nsecs: 744292724
  frame_id: "robotiq_ft_frame_id"
wrench: 
  force: 
    x: -35.1800003052
    y: -145.059997559
    z: 106.260002136
  torque: 
    x: -0.0590000003576
    y: 0.688000023365
    z: 1.31400001049
---
header: 
  seq: 1324
  stamp: 
    secs: 1603732789
    nsecs: 760793227
  frame_id: "robotiq_ft_frame_id"
wrench: 
  force: 
    x: -35.8499984741
    y: -143.970001221
    z: 106.040000916
  torque: 
    x: -0.0560000017285
    y: 0.679000020027
    z: 1.29499995708
---
header: 
  seq: 1325
  stamp: 
    secs: 1603732789
    nsecs: 777335780
  frame_id: "robotiq_ft_frame_id"
wrench: 
  force: 
    x: -35.0600013733
    y: -143.270004272
    z: 106.169998169
  torque: 
    x: -0.0649999976158
    y: 0.67199999094
    z: 1.30900001526
---
header: 
  seq: 1326
  stamp: 
    secs: 1603732789
    nsecs: 789747553
  frame_id: "robotiq_ft_frame_id"
wrench: 
  force: 
    x: -34.5
    y: -143.369995117
    z: 105.709999084
  torque: 
    x: -0.054999999702
    y: 0.675999999046
    z: 1.31900000572
---
header: 
  seq: 1327
  stamp: 
    secs: 1603732789
    nsecs: 806302209
  frame_id: "robotiq_ft_frame_id"
wrench: 
  force: 
    x: -34.3100013733
    y: -144.11000061
    z: 105.629997253
  torque: 
    x: -0.0419999994338
    y: 0.675000011921
    z: 1.31799995899
---
header: 
  seq: 1328
  stamp: 
    secs: 1603732789
    nsecs: 822733633
  frame_id: "robotiq_ft_frame_id"
wrench: 
  force: 
    x: -34.0400009155
    y: -144.339996338
    z: 105.5
  torque: 
    x: -0.0560000017285
    y: 0.671000003815
    z: 1.33200001717
---
header: 
  seq: 1329
  stamp: 
    secs: 1603732789
    nsecs: 839263297
  frame_id: "robotiq_ft_frame_id"
wrench: 
  force: 
    x: -34.2900009155
    y: -144.88999939
    z: 105.989997864
  torque: 
    x: -0.0540000014007
    y: 0.670000016689
    z: 1.32099997997
---
header: 
  seq: 1330
  stamp: 
    secs: 1603732789
    nsecs: 855774158
  frame_id: "robotiq_ft_frame_id"
wrench: 
  force: 
    x: -34.3400001526
    y: -144.839996338
    z: 105.970001221
  torque: 
    x: -0.0610000006855
    y: 0.667999982834
    z: 1.32099997997
---
header: 
  seq: 1331
  stamp: 
    secs: 1603732789
    nsecs: 872266778
  frame_id: "robotiq_ft_frame_id"
wrench: 
  force: 
    x: -33.7099990845
    y: -143.649993896
    z: 105.879997253
  torque: 
    x: -0.0509999990463
    y: 0.670000016689
    z: 1.29600000381
---
header: 
  seq: 1332
  stamp: 
    secs: 1603732789
    nsecs: 888728403
  frame_id: "robotiq_ft_frame_id"
wrench: 
  force: 
    x: -34.9099998474
    y: -144.419998169
    z: 105.680000305
  torque: 
    x: -0.0480000004172
    y: 0.680999994278
    z: 1.32099997997
---
header: 
  seq: 1333
  stamp: 
    secs: 1603732789
    nsecs: 905242125
  frame_id: "robotiq_ft_frame_id"
wrench: 
  force: 
    x: -34.9599990845
    y: -144.630004883
    z: 105.86000061
  torque: 
    x: -0.0520000010729
    y: 0.681999981403
    z: 1.32299995422
---
header: 
  seq: 1334
  stamp: 
    secs: 1603732789
    nsecs: 917580465
  frame_id: "robotiq_ft_frame_id"
wrench: 
  force: 
    x: -34.75
    y: -144.479995728
    z: 106.040000916
  torque: 
    x: -0.0560000017285
    y: 0.675000011921
    z: 1.31900000572
---
header: 
  seq: 1335
  stamp: 
    secs: 1603732789
    nsecs: 934044031
  frame_id: "robotiq_ft_frame_id"
wrench: 
  force: 
    x: -34.1199989319
    y: -144.190002441
    z: 105.959999084
  torque: 
    x: -0.0450000017881
    y: 0.675999999046
    z: 1.31900000572
---
header: 
  seq: 1336
  stamp: 
    secs: 1603732789
    nsecs: 950556363
  frame_id: "robotiq_ft_frame_id"
wrench: 
  force: 
    x: -33.2000007629
    y: -144.350006104
    z: 105.86000061
  torque: 
    x: -0.0480000004172
    y: 0.679000020027
    z: 1.2990000248
---
header: 
  seq: 1337
  stamp: 
    secs: 1603732789
    nsecs: 967066783
  frame_id: "robotiq_ft_frame_id"
wrench: 
  force: 
    x: -32.9099998474
    y: -144.419998169
    z: 105.779998779
  torque: 
    x: -0.0590000003576
    y: 0.684000015259
    z: 1.30999994278
---
header: 
  seq: 1338
  stamp: 
    secs: 1603732789
    nsecs: 983615969
  frame_id: "robotiq_ft_frame_id"
wrench: 
  force: 
    x: -33.1500015259
    y: -143.080001831
    z: 105.870002747
  torque: 
    x: -0.0630000010133
    y: 0.674000024796
    z: 1.32500004768
---
header: 
  seq: 1339
  stamp: 
    secs: 1603732790
    nsecs:    138031
  frame_id: "robotiq_ft_frame_id"
wrench: 
  force: 
    x: -33.8300018311
    y: -142.600006104
    z: 106.290000916
  torque: 
    x: -0.0659999996424
    y: 0.680999994278
    z: 1.3259999752
---
header: 
  seq: 1340
  stamp: 
    secs: 1603732790
    nsecs:  16683516
  frame_id: "robotiq_ft_frame_id"
wrench: 
  force: 
    x: -34.7900009155
    y: -143.63999939
    z: 106.430000305
  torque: 
    x: -0.0640000030398
    y: 0.680000007153
    z: 1.29400002956
---
header: 
  seq: 1341
  stamp: 
    secs: 1603732790
    nsecs:  33195631
  frame_id: "robotiq_ft_frame_id"
wrench: 
  force: 
    x: -33.5900001526
    y: -142.330001831
    z: 106.440002441
  torque: 
    x: -0.0579999983311
    y: 0.684000015259
    z: 1.30599999428
---
header: 
  seq: 1342
  stamp: 
    secs: 1603732790
    nsecs:  45619480
  frame_id: "robotiq_ft_frame_id"
wrench: 
  force: 
    x: -33.2799987793
    y: -142.649993896
    z: 106.13999939
  torque: 
    x: -0.0509999990463
    y: 0.675999999046
    z: 1.31200003624
---
header: 
  seq: 1343
  stamp: 
    secs: 1603732790
    nsecs:  62175887
  frame_id: "robotiq_ft_frame_id"
wrench: 
  force: 
    x: -33.9700012207
    y: -143.020004272
    z: 105.830001831
  torque: 
    x: -0.054999999702
    y: 0.674000024796
    z: 1.32000005245
---
header: 
  seq: 1344
  stamp: 
    secs: 1603732790
    nsecs:  78599494
  frame_id: "robotiq_ft_frame_id"
wrench: 
  force: 
    x: -33.9099998474
    y: -142.169998169
    z: 105.900001526
  torque: 
    x: -0.054999999702
    y: 0.665000021458
    z: 1.31299996376
---
header: 
  seq: 1345
  stamp: 
    secs: 1603732790
    nsecs:  95137691
  frame_id: "robotiq_ft_frame_id"
wrench: 
  force: 
    x: -34.9900016785
    y: -143.279998779
    z: 105.910003662
  torque: 
    x: -0.0500000007451
    y: 0.669000029564
    z: 1.33399999142
---
header: 
  seq: 1346
  stamp: 
    secs: 1603732790
    nsecs: 111683242
  frame_id: "robotiq_ft_frame_id"
wrench: 
  force: 
    x: -34.1399993896
    y: -142.460006714
    z: 105.730003357
  torque: 
    x: -0.0489999987185
    y: 0.672999978065
    z: 1.33200001717
---
header: 
  seq: 1347
  stamp: 
    secs: 1603732790
    nsecs: 128219505
  frame_id: "robotiq_ft_frame_id"
wrench: 
  force: 
    x: -34.1800003052
    y: -142.380004883
    z: 105.870002747
  torque: 
    x: -0.0640000030398
    y: 0.683000028133
    z: 1.32400000095
---
header: 
  seq: 1348
  stamp: 
    secs: 1603732790
    nsecs: 144756262
  frame_id: "robotiq_ft_frame_id"
wrench: 
  force: 
    x: -34.5299987793
    y: -143.589996338
    z: 106.300003052
  torque: 
    x: -0.0489999987185
    y: 0.677999973297
    z: 1.31500005722
---
header: 
  seq: 1349
  stamp: 
    secs: 1603732790
    nsecs: 161343432
  frame_id: "robotiq_ft_frame_id"
wrench: 
  force: 
    x: -33.8400001526
    y: -144.520004272
    z: 106.489997864
  torque: 
    x: -0.0540000014007
    y: 0.677999973297
    z: 1.33200001717
---
header: 
  seq: 1350
  stamp: 
    secs: 1603732790
    nsecs: 173757942
  frame_id: "robotiq_ft_frame_id"
wrench: 
  force: 
    x: -32.8199996948
    y: -143.479995728
    z: 106.370002747
  torque: 
    x: -0.0579999983311
    y: 0.679000020027
    z: 1.33399999142
---
header: 
  seq: 1351
  stamp: 
    secs: 1603732790
    nsecs: 190251187
  frame_id: "robotiq_ft_frame_id"
wrench: 
  force: 
    x: -33.3300018311
    y: -143.88999939
    z: 105.919998169
  torque: 
    x: -0.0520000010729
    y: 0.675000011921
    z: 1.33500003815
---
header: 
  seq: 1352
  stamp: 
    secs: 1603732790
    nsecs: 206716395
  frame_id: "robotiq_ft_frame_id"
wrench: 
  force: 
    x: -33.4900016785
    y: -143.690002441
    z: 106.330001831
  torque: 
    x: -0.0489999987185
    y: 0.676999986172
    z: 1.35300004482
---
header: 
  seq: 1353
  stamp: 
    secs: 1603732790
    nsecs: 223227766
  frame_id: "robotiq_ft_frame_id"
wrench: 
  force: 
    x: -33.0299987793
    y: -143.919998169
    z: 106.290000916
  torque: 
    x: -0.0309999994934
    y: 0.681999981403
    z: 1.35899996758
---
header: 
  seq: 1354
  stamp: 
    secs: 1603732790
    nsecs: 239805410
  frame_id: "robotiq_ft_frame_id"
wrench: 
  force: 
    x: -32.0400009155
    y: -143.759994507
    z: 105.940002441
  torque: 
    x: -0.0419999994338
    y: 0.679000020027
    z: 1.33899998665
---
header: 
  seq: 1355
  stamp: 
    secs: 1603732790
    nsecs: 256473934
  frame_id: "robotiq_ft_frame_id"
wrench: 
  force: 
    x: -32.4399986267
    y: -144.320007324
    z: 106.059997559
  torque: 
    x: -0.0439999997616
    y: 0.677999973297
    z: 1.33299994469
---
header: 
  seq: 1356
  stamp: 
    secs: 1603732790
    nsecs: 273001121
  frame_id: "robotiq_ft_frame_id"
wrench: 
  force: 
    x: -32.9500007629
    y: -142.809997559
    z: 106.040000916
  torque: 
    x: -0.0649999976158
    y: 0.675999999046
    z: 1.3259999752
---
header: 
  seq: 1357
  stamp: 
    secs: 1603732790
    nsecs: 285498991
  frame_id: "robotiq_ft_frame_id"
wrench: 
  force: 
    x: -33.0499992371
    y: -142.320007324
    z: 106.220001221
  torque: 
    x: -0.0719999969006
    y: 0.671000003815
    z: 1.32799994946
---
header: 
  seq: 1358
  stamp: 
    secs: 1603732790
    nsecs: 302034954
  frame_id: "robotiq_ft_frame_id"
wrench: 
  force: 
    x: -32.2099990845
    y: -142.149993896
    z: 107.050003052
  torque: 
    x: -0.0570000000298
    y: 0.666000008583
    z: 1.3370000124
---
header: 
  seq: 1359
  stamp: 
    secs: 1603732790
    nsecs: 318577211
  frame_id: "robotiq_ft_frame_id"
wrench: 
  force: 
    x: -32.7900009155
    y: -142.440002441
    z: 106.660003662
  torque: 
    x: -0.0729999989271
    y: 0.671000003815
    z: 1.33000004292
---
header: 
  seq: 1360
  stamp: 
    secs: 1603732790
    nsecs: 335082621
  frame_id: "robotiq_ft_frame_id"
wrench: 
  force: 
    x: -32.7400016785
    y: -142.509994507
    z: 106.620002747
  torque: 
    x: -0.0649999976158
    y: 0.674000024796
    z: 1.32400000095
---
header: 
  seq: 1361
  stamp: 
    secs: 1603732790
    nsecs: 351631495
  frame_id: "robotiq_ft_frame_id"
wrench: 
  force: 
    x: -32.5600013733
    y: -142.190002441
    z: 106.459999084
  torque: 
    x: -0.0560000017285
    y: 0.67199999094
    z: 1.34700000286
---
header: 
  seq: 1362
  stamp: 
    secs: 1603732790
    nsecs: 368183782
  frame_id: "robotiq_ft_frame_id"
wrench: 
  force: 
    x: -32.25
    y: -142.339996338
    z: 106.489997864
  torque: 
    x: -0.0599999986589
    y: 0.671000003815
    z: 1.36000001431
---
header: 
  seq: 1363
  stamp: 
    secs: 1603732790
    nsecs: 384728949
  frame_id: "robotiq_ft_frame_id"
wrench: 
  force: 
    x: -32.2599983215
    y: -143.570007324
    z: 105.940002441
  torque: 
    x: -0.0450000017881
    y: 0.670000016689
    z: 1.30900001526
---
header: 
  seq: 1364
  stamp: 
    secs: 1603732790
    nsecs: 401280914
  frame_id: "robotiq_ft_frame_id"
wrench: 
  force: 
    x: -33.0699996948
    y: -143.38999939
    z: 106.220001221
  torque: 
    x: -0.0630000010133
    y: 0.674000024796
    z: 1.32299995422
---
header: 
  seq: 1365
  stamp: 
    secs: 1603732790
    nsecs: 413693156
  frame_id: "robotiq_ft_frame_id"
wrench: 
  force: 
    x: -32.1599998474
    y: -142.179992676
    z: 106.480003357
  torque: 
    x: -0.0590000003576
    y: 0.677999973297
    z: 1.32799994946
---
header: 
  seq: 1366
  stamp: 
    secs: 1603732790
    nsecs: 430245180
  frame_id: "robotiq_ft_frame_id"
wrench: 
  force: 
    x: -32.1699981689
    y: -141.509994507
    z: 106.029998779
  torque: 
    x: -0.0640000030398
    y: 0.676999986172
    z: 1.30799996853
---
header: 
  seq: 1367
  stamp: 
    secs: 1603732790
    nsecs: 446673097
  frame_id: "robotiq_ft_frame_id"
wrench: 
  force: 
    x: -31.3600006104
    y: -142.580001831
    z: 105.75
  torque: 
    x: -0.0579999983311
    y: 0.671000003815
    z: 1.31500005722
---
header: 
  seq: 1368
  stamp: 
    secs: 1603732790
    nsecs: 463161148
  frame_id: "robotiq_ft_frame_id"
wrench: 
  force: 
    x: -32.1399993896
    y: -143.13999939
    z: 105.900001526
  torque: 
    x: -0.0500000007451
    y: 0.675000011921
    z: 1.30999994278
---
header: 
  seq: 1369
  stamp: 
    secs: 1603732790
    nsecs: 479725143
  frame_id: "robotiq_ft_frame_id"
wrench: 
  force: 
    x: -33.5
    y: -143.039993286
    z: 105.629997253
  torque: 
    x: -0.0560000017285
    y: 0.680000007153
    z: 1.31599998474
---
header: 
  seq: 1370
  stamp: 
    secs: 1603732790
    nsecs: 496226224
  frame_id: "robotiq_ft_frame_id"
wrench: 
  force: 
    x: -34.0800018311
    y: -143.330001831
    z: 106.0
  torque: 
    x: -0.0570000000298
    y: 0.679000020027
    z: 1.31900000572
---
header: 
  seq: 1371
  stamp: 
    secs: 1603732790
    nsecs: 512695457
  frame_id: "robotiq_ft_frame_id"
wrench: 
  force: 
    x: -33.3499984741
    y: -142.729995728
    z: 106.089996338
  torque: 
    x: -0.0579999983311
    y: 0.684000015259
    z: 1.30200004578
---
header: 
  seq: 1372
  stamp: 
    secs: 1603732790
    nsecs: 529215065
  frame_id: "robotiq_ft_frame_id"
wrench: 
  force: 
    x: -33.5400009155
    y: -142.309997559
    z: 106.0
  torque: 
    x: -0.0419999994338
    y: 0.677999973297
    z: 1.2990000248
---
header: 
  seq: 1373
  stamp: 
    secs: 1603732790
    nsecs: 541624820
  frame_id: "robotiq_ft_frame_id"
wrench: 
  force: 
    x: -34.1300010681
    y: -144.619995117
    z: 106.440002441
  torque: 
    x: -0.0599999986589
    y: 0.680000007153
    z: 1.30900001526
---
header: 
  seq: 1374
  stamp: 
    secs: 1603732790
    nsecs: 558173041
  frame_id: "robotiq_ft_frame_id"
wrench: 
  force: 
    x: -32.8600006104
    y: -143.380004883
    z: 105.930000305
  torque: 
    x: -0.0640000030398
    y: 0.686999976635
    z: 1.29600000381
---
header: 
  seq: 1375
  stamp: 
    secs: 1603732790
    nsecs: 574638335
  frame_id: "robotiq_ft_frame_id"
wrench: 
  force: 
    x: -33.2900009155
    y: -143.919998169
    z: 105.769996643
  torque: 
    x: -0.0610000006855
    y: 0.68599998951
    z: 1.29499995708
---
header: 
  seq: 1376
  stamp: 
    secs: 1603732790
    nsecs: 591125631
  frame_id: "robotiq_ft_frame_id"
wrench: 
  force: 
    x: -33.4700012207
    y: -143.550003052
    z: 105.739997864
  torque: 
    x: -0.0750000029802
    y: 0.684000015259
    z: 1.31700003147
---
header: 
  seq: 1377
  stamp: 
    secs: 1603732790
    nsecs: 607666437
  frame_id: "robotiq_ft_frame_id"
wrench: 
  force: 
    x: -33.8600006104
    y: -143.11000061
    z: 105.970001221
  torque: 
    x: -0.0619999989867
    y: 0.675999999046
    z: 1.31200003624
---
header: 
  seq: 1378
  stamp: 
    secs: 1603732790
    nsecs: 624122099
  frame_id: "robotiq_ft_frame_id"
wrench: 
  force: 
    x: -33.9199981689
    y: -143.38999939
    z: 106.099998474
  torque: 
    x: -0.0579999983311
    y: 0.662000000477
    z: 1.3029999733
---
header: 
  seq: 1379
  stamp: 
    secs: 1603732790
    nsecs: 640595973
  frame_id: "robotiq_ft_frame_id"
wrench: 
  force: 
    x: -34.2000007629
    y: -143.910003662
    z: 106.11000061
  torque: 
    x: -0.0689999982715
    y: 0.662000000477
    z: 1.33099997044
---
header: 
  seq: 1380
  stamp: 
    secs: 1603732790
    nsecs: 657115988
  frame_id: "robotiq_ft_frame_id"
wrench: 
  force: 
    x: -33.7299995422
    y: -143.699996948
    z: 106.180000305
  torque: 
    x: -0.0489999987185
    y: 0.663999974728
    z: 1.3259999752
---
header: 
  seq: 1381
  stamp: 
    secs: 1603732790
    nsecs: 669537825
  frame_id: "robotiq_ft_frame_id"
wrench: 
  force: 
    x: -33.9900016785
    y: -143.179992676
    z: 105.309997559
  torque: 
    x: -0.0570000000298
    y: 0.669000029564
    z: 1.30499994755
---
header: 
  seq: 1382
  stamp: 
    secs: 1603732790
    nsecs: 686044197
  frame_id: "robotiq_ft_frame_id"
wrench: 
  force: 
    x: -33.4300003052
    y: -143.660003662
    z: 106.040000916
  torque: 
    x: -0.0529999993742
    y: 0.660000026226
    z: 1.30999994278
---
header: 
  seq: 1383
  stamp: 
    secs: 1603732790
    nsecs: 702487779
  frame_id: "robotiq_ft_frame_id"
wrench: 
  force: 
    x: -31.8899993896
    y: -142.580001831
    z: 105.519996643
  torque: 
    x: -0.0500000007451
    y: 0.662000000477
    z: 1.29999995232
---
header: 
  seq: 1384
  stamp: 
    secs: 1603732790
    nsecs: 718852293
  frame_id: "robotiq_ft_frame_id"
wrench: 
  force: 
    x: -31.2600002289
    y: -142.039993286
    z: 105.550003052
  torque: 
    x: -0.0359999984503
    y: 0.663999974728
    z: 1.30900001526
---
header: 
  seq: 1385
  stamp: 
    secs: 1603732790
    nsecs: 735300716
  frame_id: "robotiq_ft_frame_id"
wrench: 
  force: 
    x: -31.2600002289
    y: -142.220001221
    z: 105.419998169
  torque: 
    x: -0.0309999994934
    y: 0.660000026226
    z: 1.31700003147
---
header: 
  seq: 1386
  stamp: 
    secs: 1603732790
    nsecs: 751796983
  frame_id: "robotiq_ft_frame_id"
wrench: 
  force: 
    x: -31.6000003815
    y: -141.940002441
    z: 105.650001526
  torque: 
    x: -0.0570000000298
    y: 0.666000008583
    z: 1.31299996376
---
header: 
  seq: 1387
  stamp: 
    secs: 1603732790
    nsecs: 768339666
  frame_id: "robotiq_ft_frame_id"
wrench: 
  force: 
    x: -30.8099994659
    y: -143.009994507
    z: 105.480003357
  torque: 
    x: -0.0439999997616
    y: 0.662999987602
    z: 1.31299996376
---
header: 
  seq: 1388
  stamp: 
    secs: 1603732790
    nsecs: 784876059
  frame_id: "robotiq_ft_frame_id"
wrench: 
  force: 
    x: -32.0699996948
    y: -143.160003662
    z: 105.449996948
  torque: 
    x: -0.0370000004768
    y: 0.660000026226
    z: 1.28999996185
---
header: 
  seq: 1389
  stamp: 
    secs: 1603732790
    nsecs: 797627273
  frame_id: "robotiq_ft_frame_id"
wrench: 
  force: 
    x: -31.7199993134
    y: -143.619995117
    z: 105.680000305
  torque: 
    x: -0.0460000000894
    y: 0.657000005245
    z: 1.3029999733
---
header: 
  seq: 1390
  stamp: 
    secs: 1603732790
    nsecs: 814205903
  frame_id: "robotiq_ft_frame_id"
wrench: 
  force: 
    x: -31.1399993896
    y: -143.119995117
    z: 105.680000305
  torque: 
    x: -0.0359999984503
    y: 0.670000016689
    z: 1.32400000095
---
header: 
  seq: 1391
  stamp: 
    secs: 1603732790
    nsecs: 830737033
  frame_id: "robotiq_ft_frame_id"
wrench: 
  force: 
    x: -32.3100013733
    y: -143.660003662
    z: 106.099998474
  torque: 
    x: -0.0480000004172
    y: 0.669000029564
    z: 1.32500004768
---
header: 
  seq: 1392
  stamp: 
    secs: 1603732790
    nsecs: 847292999
  frame_id: "robotiq_ft_frame_id"
wrench: 
  force: 
    x: -32.4599990845
    y: -143.990005493
    z: 105.989997864
  torque: 
    x: -0.0579999983311
    y: 0.671000003815
    z: 1.32799994946
---
header: 
  seq: 1393
  stamp: 
    secs: 1603732790
    nsecs: 863842285
  frame_id: "robotiq_ft_frame_id"
wrench: 
  force: 
    x: -31.7000007629
    y: -143.330001831
    z: 106.339996338
  torque: 
    x: -0.0419999994338
    y: 0.665000021458
    z: 1.31400001049
---
header: 
  seq: 1394
  stamp: 
    secs: 1603732790
    nsecs: 880379623
  frame_id: "robotiq_ft_frame_id"
wrench: 
  force: 
    x: -30.7600002289
    y: -141.880004883
    z: 106.150001526
  torque: 
    x: -0.0509999990463
    y: 0.666999995708
    z: 1.33000004292
---
header: 
  seq: 1395
  stamp: 
    secs: 1603732790
    nsecs: 896882244
  frame_id: "robotiq_ft_frame_id"
wrench: 
  force: 
    x: -31.3400001526
    y: -142.509994507
    z: 105.980003357
  torque: 
    x: -0.0450000017881
    y: 0.670000016689
    z: 1.33500003815
---
header: 
  seq: 1396
  stamp: 
    secs: 1603732790
    nsecs: 913350155
  frame_id: "robotiq_ft_frame_id"
wrench: 
  force: 
    x: -31.3700008392
    y: -142.5
    z: 105.989997864
  torque: 
    x: -0.0410000011325
    y: 0.662999987602
    z: 1.32700002193
---
header: 
  seq: 1397
  stamp: 
    secs: 1603732790
    nsecs: 925770604
  frame_id: "robotiq_ft_frame_id"
wrench: 
  force: 
    x: -31.3400001526
    y: -142.539993286
    z: 106.089996338
  torque: 
    x: -0.0500000007451
    y: 0.674000024796
    z: 1.3259999752
---
header: 
  seq: 1398
  stamp: 
    secs: 1603732790
    nsecs: 942317863
  frame_id: "robotiq_ft_frame_id"
wrench: 
  force: 
    x: -30.4500007629
    y: -142.619995117
    z: 106.419998169
  torque: 
    x: -0.0509999990463
    y: 0.679000020027
    z: 1.30599999428
---
header: 
  seq: 1399
  stamp: 
    secs: 1603732790
    nsecs: 958786060
  frame_id: "robotiq_ft_frame_id"
wrench: 
  force: 
    x: -30.6399993896
    y: -143.190002441
    z: 105.980003357
  torque: 
    x: -0.0659999996424
    y: 0.672999978065
    z: 1.30900001526
---
header: 
  seq: 1400
  stamp: 
    secs: 1603732790
    nsecs: 975354425
  frame_id: "robotiq_ft_frame_id"
wrench: 
  force: 
    x: -30.8099994659
    y: -143.630004883
    z: 105.900001526
  torque: 
    x: -0.0430000014603
    y: 0.675999999046
    z: 1.32000005245
---
header: 
  seq: 1401
  stamp: 
    secs: 1603732790
    nsecs: 991914827
  frame_id: "robotiq_ft_frame_id"
wrench: 
  force: 
    x: -31.6000003815
    y: -144.330001831
    z: 105.940002441
  torque: 
    x: -0.0640000030398
    y: 0.685000002384
    z: 1.32700002193
---
header: 
  seq: 1402
  stamp: 
    secs: 1603732791
    nsecs:   8437688
  frame_id: "robotiq_ft_frame_id"
wrench: 
  force: 
    x: -31.6399993896
    y: -144.809997559
    z: 105.660003662
  torque: 
    x: -0.0520000010729
    y: 0.675000011921
    z: 1.32099997997
---
header: 
  seq: 1403
  stamp: 
    secs: 1603732791
    nsecs:  24994402
  frame_id: "robotiq_ft_frame_id"
wrench: 
  force: 
    x: -31.4099998474
    y: -144.300003052
    z: 105.680000305
  torque: 
