header: 
  seq: 641
  stamp: 
    secs: 1603731416
    nsecs: 184503210
  frame_id: "robotiq_ft_frame_id"
wrench: 
  force: 
    x: -51.8199996948
    y: -122.88999939
    z: 77.4199981689
  torque: 
    x: -0.335000008345
    y: 0.634999990463
    z: 0.748000025749
---
header: 
  seq: 642
  stamp: 
    secs: 1603731416
    nsecs: 196837095
  frame_id: "robotiq_ft_frame_id"
wrench: 
  force: 
    x: -51.8199996948
    y: -121.88999939
    z: 77.3399963379
  torque: 
    x: -0.351000010967
    y: 0.629999995232
    z: 0.742999970913
---
header: 
  seq: 643
  stamp: 
    secs: 1603731416
    nsecs: 213295611
  frame_id: "robotiq_ft_frame_id"
wrench: 
  force: 
    x: -51.1399993896
    y: -121.980003357
    z: 77.2399978638
  torque: 
    x: -0.335000008345
    y: 0.620999991894
    z: 0.736999988556
---
header: 
  seq: 644
  stamp: 
    secs: 1603731416
    nsecs: 229837957
  frame_id: "robotiq_ft_frame_id"
wrench: 
  force: 
    x: -51.0499992371
    y: -121.910003662
    z: 77.4199981689
  torque: 
    x: -0.331999987364
    y: 0.625999987125
    z: 0.727999985218
---
header: 
  seq: 645
  stamp: 
    secs: 1603731416
    nsecs: 246307008
  frame_id: "robotiq_ft_frame_id"
wrench: 
  force: 
    x: -50.7999992371
    y: -121.470001221
    z: 77.3099975586
  torque: 
    x: -0.340000003576
    y: 0.638000011444
    z: 0.727999985218
---
header: 
  seq: 646
  stamp: 
    secs: 1603731416
    nsecs: 262792144
  frame_id: "robotiq_ft_frame_id"
wrench: 
  force: 
    x: -50.0999984741
    y: -120.839996338
    z: 77.2799987793
  torque: 
    x: -0.32800000906
    y: 0.643999993801
    z: 0.741999983788
---
header: 
  seq: 647
  stamp: 
    secs: 1603731416
    nsecs: 279289701
  frame_id: "robotiq_ft_frame_id"
wrench: 
  force: 
    x: -50.6199989319
    y: -120.459999084
    z: 77.0400009155
  torque: 
    x: -0.333000004292
    y: 0.643000006676
    z: 0.731000006199
---
header: 
  seq: 648
  stamp: 
    secs: 1603731416
    nsecs: 295665651
  frame_id: "robotiq_ft_frame_id"
wrench: 
  force: 
    x: -50.9799995422
    y: -121.190002441
    z: 77.1299972534
  torque: 
    x: -0.321000009775
    y: 0.638000011444
    z: 0.742999970913
---
header: 
  seq: 649
  stamp: 
    secs: 1603731416
    nsecs: 312190407
  frame_id: "robotiq_ft_frame_id"
wrench: 
  force: 
    x: -50.5800018311
    y: -121.099998474
    z: 77.2699966431
  torque: 
    x: -0.340000003576
    y: 0.639999985695
    z: 0.763999998569
---
header: 
  seq: 650
  stamp: 
    secs: 1603731416
    nsecs: 324577189
  frame_id: "robotiq_ft_frame_id"
wrench: 
  force: 
    x: -51.0299987793
    y: -123.080001831
    z: 77.5400009155
  torque: 
    x: -0.326000005007
    y: 0.637000024319
    z: 0.741999983788
---
header: 
  seq: 651
  stamp: 
    secs: 1603731416
    nsecs: 340958288
  frame_id: "robotiq_ft_frame_id"
wrench: 
  force: 
    x: -50.2099990845
    y: -123.050003052
    z: 77.6999969482
  torque: 
    x: -0.323000013828
    y: 0.648000001907
    z: 0.741999983788
---
header: 
  seq: 652
  stamp: 
    secs: 1603731416
    nsecs: 357490602
  frame_id: "robotiq_ft_frame_id"
wrench: 
  force: 
    x: -50.0
    y: -123.410003662
    z: 77.4899978638
  torque: 
    x: -0.328999996185
    y: 0.64200001955
    z: 0.739000022411
---
header: 
  seq: 653
  stamp: 
    secs: 1603731416
    nsecs: 373925981
  frame_id: "robotiq_ft_frame_id"
wrench: 
  force: 
    x: -50.3699989319
    y: -122.169998169
    z: 77.3700027466
  torque: 
    x: -0.333000004292
    y: 0.638999998569
    z: 0.714999973774
---
header: 
  seq: 654
  stamp: 
    secs: 1603731416
    nsecs: 390443775
  frame_id: "robotiq_ft_frame_id"
wrench: 
  force: 
    x: -49.7599983215
    y: -121.510002136
    z: 77.3899993896
  torque: 
    x: -0.335000008345
    y: 0.638000011444
    z: 0.722000002861
---
header: 
  seq: 655
  stamp: 
    secs: 1603731416
    nsecs: 406853605
  frame_id: "robotiq_ft_frame_id"
wrench: 
  force: 
    x: -51.0699996948
    y: -122.309997559
    z: 76.9300003052
  torque: 
    x: -0.33599999547
    y: 0.632000029087
    z: 0.736999988556
---
header: 
  seq: 656
  stamp: 
    secs: 1603731416
    nsecs: 423320930
  frame_id: "robotiq_ft_frame_id"
wrench: 
  force: 
    x: -51.5400009155
    y: -122.370002747
    z: 76.7900009155
  torque: 
    x: -0.32800000906
    y: 0.634999990463
    z: 0.736999988556
---
header: 
  seq: 657
  stamp: 
    secs: 1603731416
    nsecs: 439873127
  frame_id: "robotiq_ft_frame_id"
wrench: 
  force: 
    x: -51.9399986267
    y: -122.330001831
    z: 77.0
  torque: 
    x: -0.344000011683
    y: 0.638999998569
    z: 0.739000022411
---
header: 
  seq: 658
  stamp: 
    secs: 1603731416
    nsecs: 456431544
  frame_id: "robotiq_ft_frame_id"
wrench: 
  force: 
    x: -51.7999992371
    y: -122.290000916
    z: 77.0400009155
  torque: 
    x: -0.354000002146
    y: 0.629999995232
    z: 0.740000009537
---
header: 
  seq: 659
  stamp: 
    secs: 1603731416
    nsecs: 468846981
  frame_id: "robotiq_ft_frame_id"
wrench: 
  force: 
    x: -51.8300018311
    y: -122.38999939
    z: 77.1299972534
  torque: 
    x: -0.340000003576
    y: 0.633000016212
    z: 0.723999977112
---
header: 
  seq: 660
  stamp: 
    secs: 1603731416
    nsecs: 485187724
  frame_id: "robotiq_ft_frame_id"
wrench: 
  force: 
    x: -51.9799995422
    y: -122.040000916
    z: 77.1999969482
  torque: 
    x: -0.340999990702
    y: 0.625999987125
    z: 0.728999972343
---
header: 
  seq: 661
  stamp: 
    secs: 1603731416
    nsecs: 501518658
  frame_id: "robotiq_ft_frame_id"
wrench: 
  force: 
    x: -51.5699996948
    y: -121.980003357
    z: 77.1500015259
  torque: 
    x: -0.347000002861
    y: 0.634999990463
    z: 0.731000006199
---
header: 
  seq: 662
  stamp: 
    secs: 1603731416
    nsecs: 517858499
  frame_id: "robotiq_ft_frame_id"
wrench: 
  force: 
    x: -50.9300003052
    y: -120.839996338
    z: 77.3799972534
  torque: 
    x: -0.344999998808
    y: 0.635999977589
    z: 0.713999986649
---
header: 
  seq: 663
  stamp: 
    secs: 1603731416
    nsecs: 534176271
  frame_id: "robotiq_ft_frame_id"
wrench: 
  force: 
    x: -50.5699996948
    y: -120.370002747
    z: 77.2600021362
  torque: 
    x: -0.351000010967
    y: 0.634999990463
    z: 0.717000007629
---
header: 
  seq: 664
  stamp: 
    secs: 1603731416
    nsecs: 550462230
  frame_id: "robotiq_ft_frame_id"
wrench: 
  force: 
    x: -50.7799987793
    y: -120.599998474
    z: 77.1399993896
  torque: 
    x: -0.347000002861
    y: 0.635999977589
    z: 0.731000006199
---
header: 
  seq: 665
  stamp: 
    secs: 1603731416
    nsecs: 566785953
  frame_id: "robotiq_ft_frame_id"
wrench: 
  force: 
    x: -51.2400016785
    y: -120.629997253
    z: 77.3399963379
  torque: 
    x: -0.342999994755
    y: 0.619000017643
    z: 0.725000023842
---
header: 
  seq: 666
  stamp: 
    secs: 1603731416
    nsecs: 583318386
  frame_id: "robotiq_ft_frame_id"
wrench: 
  force: 
    x: -51.1199989319
    y: -120.849998474
    z: 77.4499969482
  torque: 
    x: -0.337999999523
    y: 0.628000020981
    z: 0.712000012398
---
header: 
  seq: 667
  stamp: 
    secs: 1603731416
    nsecs: 599796962
  frame_id: "robotiq_ft_frame_id"
wrench: 
  force: 
    x: -51.2599983215
    y: -120.800003052
    z: 77.1800003052
  torque: 
    x: -0.340999990702
    y: 0.638000011444
    z: 0.707000017166
---
header: 
  seq: 668
  stamp: 
    secs: 1603731416
    nsecs: 616303687
  frame_id: "robotiq_ft_frame_id"
wrench: 
  force: 
    x: -51.4399986267
    y: -120.470001221
    z: 76.9300003052
  torque: 
    x: -0.342000007629
    y: 0.64099997282
    z: 0.691999971867
---
header: 
  seq: 669
  stamp: 
    secs: 1603731416
    nsecs: 628727887
  frame_id: "robotiq_ft_frame_id"
wrench: 
  force: 
    x: -51.5699996948
    y: -120.449996948
    z: 77.1299972534
  torque: 
    x: -0.338999986649
    y: 0.634999990463
    z: 0.695999979973
---
header: 
  seq: 670
  stamp: 
    secs: 1603731416
    nsecs: 645226863
  frame_id: "robotiq_ft_frame_id"
wrench: 
  force: 
    x: -52.2099990845
    y: -121.120002747
    z: 77.2399978638
  torque: 
    x: -0.349000006914
    y: 0.64200001955
    z: 0.728999972343
---
header: 
  seq: 671
  stamp: 
    secs: 1603731416
    nsecs: 661600667
  frame_id: "robotiq_ft_frame_id"
wrench: 
  force: 
    x: -52.0999984741
    y: -121.089996338
    z: 77.1800003052
  torque: 
    x: -0.349000006914
    y: 0.637000024319
    z: 0.726999998093
---
header: 
  seq: 672
  stamp: 
    secs: 1603731416
    nsecs: 678019726
  frame_id: "robotiq_ft_frame_id"
wrench: 
  force: 
    x: -51.6100006104
    y: -120.620002747
    z: 77.5
  torque: 
    x: -0.335000008345
    y: 0.630999982357
    z: 0.713999986649
---
header: 
  seq: 673
  stamp: 
    secs: 1603731416
    nsecs: 694564050
  frame_id: "robotiq_ft_frame_id"
wrench: 
  force: 
    x: -51.2400016785
    y: -120.849998474
    z: 77.4800033569
  torque: 
    x: -0.331999987364
    y: 0.639999985695
    z: 0.711000025272
---
header: 
  seq: 674
  stamp: 
    secs: 1603731416
    nsecs: 711018951
  frame_id: "robotiq_ft_frame_id"
wrench: 
  force: 
    x: -50.9300003052
    y: -120.190002441
    z: 77.3799972534
  torque: 
    x: -0.342000007629
    y: 0.629999995232
    z: 0.702000021935
---
header: 
  seq: 675
  stamp: 
    secs: 1603731416
    nsecs: 727515728
  frame_id: "robotiq_ft_frame_id"
wrench: 
  force: 
    x: -50.9199981689
    y: -119.540000916
    z: 77.4199981689
  torque: 
    x: -0.356999993324
    y: 0.638000011444
    z: 0.735000014305
---
header: 
  seq: 676
  stamp: 
    secs: 1603731416
    nsecs: 744040381
  frame_id: "robotiq_ft_frame_id"
wrench: 
  force: 
    x: -50.5800018311
    y: -120.669998169
    z: 77.6999969482
  torque: 
    x: -0.338999986649
    y: 0.632000029087
    z: 0.736999988556
---
header: 
  seq: 677
  stamp: 
    secs: 1603731416
    nsecs: 760582405
  frame_id: "robotiq_ft_frame_id"
wrench: 
  force: 
    x: -51.1300010681
    y: -121.489997864
    z: 77.6200027466
  torque: 
    x: -0.333999991417
    y: 0.630999982357
    z: 0.72000002861
---
header: 
  seq: 678
  stamp: 
    secs: 1603731416
    nsecs: 772953775
  frame_id: "robotiq_ft_frame_id"
wrench: 
  force: 
    x: -50.7999992371
    y: -121.930000305
    z: 77.7200012207
  torque: 
    x: -0.328999996185
    y: 0.634000003338
    z: 0.721000015736
---
header: 
  seq: 679
  stamp: 
    secs: 1603731416
    nsecs: 789400349
  frame_id: "robotiq_ft_frame_id"
wrench: 
  force: 
    x: -50.3699989319
    y: -121.540000916
    z: 77.6299972534
  torque: 
    x: -0.335000008345
    y: 0.633000016212
    z: 0.725000023842
---
header: 
  seq: 680
  stamp: 
    secs: 1603731416
    nsecs: 805932248
  frame_id: "robotiq_ft_frame_id"
wrench: 
  force: 
    x: -50.4000015259
    y: -122.040000916
    z: 77.3300018311
  torque: 
    x: -0.326000005007
    y: 0.628000020981
    z: 0.72000002861
---
header: 
  seq: 681
  stamp: 
    secs: 1603731416
    nsecs: 822374397
  frame_id: "robotiq_ft_frame_id"
wrench: 
  force: 
    x: -49.8899993896
    y: -122.129997253
    z: 77.2099990845
  torque: 
    x: -0.326000005007
    y: 0.632000029087
    z: 0.717999994755
---
header: 
  seq: 682
  stamp: 
    secs: 1603731416
    nsecs: 838876837
  frame_id: "robotiq_ft_frame_id"
wrench: 
  force: 
    x: -49.8400001526
    y: -121.480003357
    z: 77.5899963379
  torque: 
    x: -0.319999992847
    y: 0.633000016212
    z: 0.728999972343
---
header: 
  seq: 683
  stamp: 
    secs: 1603731416
    nsecs: 855421511
  frame_id: "robotiq_ft_frame_id"
wrench: 
  force: 
    x: -50.3400001526
    y: -123.879997253
    z: 77.3899993896
  torque: 
    x: -0.331000000238
    y: 0.638999998569
    z: 0.753000020981
---
header: 
  seq: 684
  stamp: 
    secs: 1603731416
    nsecs: 871959777
  frame_id: "robotiq_ft_frame_id"
wrench: 
  force: 
    x: -49.9199981689
    y: -123.529998779
    z: 77.2600021362
  torque: 
    x: -0.326999992132
    y: 0.626999974251
    z: 0.755999982357
---
header: 
  seq: 685
  stamp: 
    secs: 1603731416
    nsecs: 888470044
  frame_id: "robotiq_ft_frame_id"
wrench: 
  force: 
    x: -48.5699996948
    y: -122.11000061
    z: 77.0100021362
  torque: 
    x: -0.333999991417
    y: 0.629000008106
    z: 0.73299998045
---
header: 
  seq: 686
  stamp: 
    secs: 1603731416
    nsecs: 900848522
  frame_id: "robotiq_ft_frame_id"
wrench: 
  force: 
    x: -48.9900016785
    y: -121.459999084
    z: 76.8099975586
  torque: 
    x: -0.347000002861
    y: 0.638000011444
    z: 0.73400002718
---
header: 
  seq: 687
  stamp: 
    secs: 1603731416
    nsecs: 917336635
  frame_id: "robotiq_ft_frame_id"
wrench: 
  force: 
    x: -50.0
    y: -122.680000305
    z: 77.2200012207
  torque: 
    x: -0.351999998093
    y: 0.625999987125
    z: 0.73299998045
---
header: 
  seq: 688
  stamp: 
    secs: 1603731416
    nsecs: 933855747
  frame_id: "robotiq_ft_frame_id"
wrench: 
  force: 
    x: -49.0
    y: -122.029998779
    z: 77.2799987793
  torque: 
    x: -0.340999990702
    y: 0.639999985695
    z: 0.705999970436
---
header: 
  seq: 689
  stamp: 
    secs: 1603731416
    nsecs: 950378362
  frame_id: "robotiq_ft_frame_id"
wrench: 
  force: 
    x: -48.5499992371
    y: -121.510002136
    z: 77.1999969482
  torque: 
    x: -0.342999994755
    y: 0.633000016212
    z: 0.748000025749
---
header: 
  seq: 690
  stamp: 
    secs: 1603731416
    nsecs: 966799602
  frame_id: "robotiq_ft_frame_id"
wrench: 
  force: 
    x: -49.8800010681
    y: -123.050003052
    z: 77.3399963379
  torque: 
    x: -0.344000011683
    y: 0.617999970913
    z: 0.726999998093
---
header: 
  seq: 691
  stamp: 
    secs: 1603731416
    nsecs: 983340849
  frame_id: "robotiq_ft_frame_id"
wrench: 
  force: 
    x: -50.6199989319
    y: -122.919998169
    z: 77.3700027466
  torque: 
    x: -0.344999998808
    y: 0.626999974251
    z: 0.722000002861
---
header: 
  seq: 692
  stamp: 
    secs: 1603731416
    nsecs: 999803519
  frame_id: "robotiq_ft_frame_id"
wrench: 
  force: 
    x: -50.9099998474
    y: -122.489997864
    z: 77.0999984741
  torque: 
    x: -0.361999988556
    y: 0.629000008106
    z: 0.704999983311
---
header: 
  seq: 693
  stamp: 
    secs: 1603731417
    nsecs:  16343447
  frame_id: "robotiq_ft_frame_id"
wrench: 
  force: 
    x: -50.6699981689
    y: -122.629997253
    z: 77.1299972534
  torque: 
    x: -0.344999998808
    y: 0.629999995232
    z: 0.705999970436
---
header: 
  seq: 694
  stamp: 
    secs: 1603731417
    nsecs:  28754320
  frame_id: "robotiq_ft_frame_id"
wrench: 
  force: 
    x: -50.2999992371
    y: -122.319999695
    z: 77.3000030518
  torque: 
    x: -0.347999989986
    y: 0.629999995232
    z: 0.714999973774
---
header: 
  seq: 695
  stamp: 
    secs: 1603731417
    nsecs:  45258058
  frame_id: "robotiq_ft_frame_id"
wrench: 
  force: 
    x: -50.3899993896
    y: -121.339996338
    z: 77.3499984741
  torque: 
    x: -0.344000011683
    y: 0.634999990463
    z: 0.717999994755
---
header: 
  seq: 696
  stamp: 
    secs: 1603731417
    nsecs:  61792890
  frame_id: "robotiq_ft_frame_id"
wrench: 
  force: 
    x: -50.2700004578
    y: -121.36000061
    z: 77.8499984741
  torque: 
    x: -0.333999991417
    y: 0.629999995232
    z: 0.714999973774
---
header: 
  seq: 697
  stamp: 
    secs: 1603731417
    nsecs:  78269287
  frame_id: "robotiq_ft_frame_id"
wrench: 
  force: 
    x: -50.0499992371
    y: -121.419998169
    z: 77.9400024414
  torque: 
    x: -0.351000010967
    y: 0.625999987125
    z: 0.717999994755
---
header: 
  seq: 698
  stamp: 
    secs: 1603731417
    nsecs:  94708035
  frame_id: "robotiq_ft_frame_id"
wrench: 
  force: 
    x: -49.4500007629
    y: -120.839996338
    z: 77.1800003052
  torque: 
    x: -0.351999998093
    y: 0.626999974251
    z: 0.707000017166
---
header: 
  seq: 699
  stamp: 
    secs: 1603731417
    nsecs: 111205778
  frame_id: "robotiq_ft_frame_id"
wrench: 
  force: 
    x: -49.6899986267
    y: -121.099998474
    z: 77.25
  torque: 
    x: -0.32800000906
    y: 0.634000003338
    z: 0.68900001049
---
header: 
  seq: 700
  stamp: 
    secs: 1603731417
    nsecs: 127721876
  frame_id: "robotiq_ft_frame_id"
wrench: 
  force: 
    x: -50.75
    y: -120.800003052
    z: 76.8799972534
  torque: 
    x: -0.324999988079
    y: 0.634999990463
    z: 0.70300000906
---
header: 
  seq: 701
  stamp: 
    secs: 1603731417
    nsecs: 144189823
  frame_id: "robotiq_ft_frame_id"
wrench: 
  force: 
    x: -50.4500007629
    y: -121.459999084
    z: 77.2699966431
  torque: 
    x: -0.331999987364
    y: 0.635999977589
    z: 0.725000023842
---
header: 
  seq: 702
  stamp: 
    secs: 1603731417
    nsecs: 160555473
  frame_id: "robotiq_ft_frame_id"
wrench: 
  force: 
    x: -51.0800018311
    y: -121.900001526
    z: 77.4800033569
  torque: 
    x: -0.33599999547
    y: 0.643000006676
    z: 0.708999991417
---
header: 
  seq: 703
  stamp: 
    secs: 1603731417
    nsecs: 172800951
  frame_id: "robotiq_ft_frame_id"
wrench: 
  force: 
    x: -50.8400001526
    y: -121.220001221
    z: 77.3600006104
  torque: 
    x: -0.32800000906
    y: 0.643000006676
    z: 0.704999983311
---
header: 
  seq: 704
  stamp: 
    secs: 1603731417
    nsecs: 189109001
  frame_id: "robotiq_ft_frame_id"
wrench: 
  force: 
    x: -51.0299987793
    y: -121.36000061
    z: 77.1200027466
  torque: 
    x: -0.324999988079
    y: 0.639999985695
    z: 0.702000021935
---
header: 
  seq: 705
  stamp: 
    secs: 1603731417
    nsecs: 205462056
  frame_id: "robotiq_ft_frame_id"
wrench: 
  force: 
    x: -50.8400001526
    y: -121.529998779
    z: 76.8600006104
  torque: 
    x: -0.333000004292
    y: 0.643000006676
    z: 0.712999999523
---
header: 
  seq: 706
  stamp: 
    secs: 1603731417
    nsecs: 221818689
  frame_id: "robotiq_ft_frame_id"
wrench: 
  force: 
    x: -50.9900016785
    y: -121.480003357
    z: 77.0500030518
  torque: 
    x: -0.321999996901
    y: 0.644999980927
    z: 0.712999999523
---
header: 
  seq: 707
  stamp: 
    secs: 1603731417
    nsecs: 238148123
  frame_id: "robotiq_ft_frame_id"
wrench: 
  force: 
    x: -50.7999992371
    y: -122.069999695
    z: 77.6299972534
  torque: 
    x: -0.331999987364
    y: 0.632000029087
    z: 0.751999974251
---
header: 
  seq: 708
  stamp: 
    secs: 1603731417
    nsecs: 254441264
  frame_id: "robotiq_ft_frame_id"
wrench: 
  force: 
    x: -51.3300018311
    y: -122.900001526
    z: 77.8399963379
  torque: 
    x: -0.349000006914
    y: 0.648999989033
    z: 0.748000025749
---
header: 
  seq: 709
  stamp: 
    secs: 1603731417
    nsecs: 270689486
  frame_id: "robotiq_ft_frame_id"
wrench: 
  force: 
    x: -52.4099998474
    y: -123.830001831
    z: 77.6100006104
  torque: 
    x: -0.351000010967
    y: 0.64200001955
    z: 0.717000007629
---
header: 
  seq: 710
  stamp: 
    secs: 1603731417
    nsecs: 286957487
  frame_id: "robotiq_ft_frame_id"
wrench: 
  force: 
    x: -51.6800003052
    y: -122.300003052
    z: 77.0400009155
  torque: 
    x: -0.326000005007
    y: 0.630999982357
    z: 0.726000010967
---
header: 
  seq: 711
  stamp: 
    secs: 1603731417
    nsecs: 303296598
  frame_id: "robotiq_ft_frame_id"
wrench: 
  force: 
    x: -50.9199981689
    y: -122.61000061
    z: 77.3300018311
  torque: 
    x: -0.317000001669
    y: 0.639999985695
    z: 0.739000022411
---
header: 
  seq: 712
  stamp: 
    secs: 1603731417
    nsecs: 319597277
  frame_id: "robotiq_ft_frame_id"
wrench: 
  force: 
    x: -50.9599990845
    y: -122.669998169
    z: 77.3199996948
  torque: 
    x: -0.330000013113
    y: 0.64099997282
    z: 0.745000004768
---
header: 
  seq: 713
  stamp: 
    secs: 1603731417
    nsecs: 335923029
  frame_id: "robotiq_ft_frame_id"
wrench: 
  force: 
    x: -50.4900016785
    y: -121.980003357
    z: 77.4599990845
  torque: 
    x: -0.337999999523
    y: 0.637000024319
    z: 0.742999970913
---
header: 
  seq: 714
  stamp: 
    secs: 1603731417
    nsecs: 352282491
  frame_id: "robotiq_ft_frame_id"
wrench: 
  force: 
    x: -50.0299987793
    y: -121.430000305
    z: 77.5500030518
  torque: 
    x: -0.335000008345
    y: 0.637000024319
    z: 0.726999998093
---
header: 
  seq: 715
  stamp: 
    secs: 1603731417
    nsecs: 368603062
  frame_id: "robotiq_ft_frame_id"
wrench: 
  force: 
    x: -50.0999984741
    y: -121.069999695
    z: 77.3600006104
  torque: 
    x: -0.32800000906
    y: 0.64099997282
    z: 0.73400002718
---
header: 
  seq: 716
  stamp: 
    secs: 1603731417
    nsecs: 380838408
  frame_id: "robotiq_ft_frame_id"
wrench: 
  force: 
    x: -49.6399993896
    y: -121.709999084
    z: 77.2399978638
  torque: 
    x: -0.333000004292
    y: 0.64099997282
    z: 0.740999996662
---
header: 
  seq: 717
  stamp: 
    secs: 1603731417
    nsecs: 397350019
  frame_id: "robotiq_ft_frame_id"
wrench: 
  force: 
    x: -49.9099998474
    y: -122.36000061
    z: 77.5500030518
  torque: 
    x: -0.344000011683
    y: 0.657999992371
    z: 0.745000004768
---
header: 
  seq: 718
  stamp: 
    secs: 1603731417
    nsecs: 413854816
  frame_id: "robotiq_ft_frame_id"
wrench: 
  force: 
    x: -50.1399993896
    y: -122.199996948
    z: 77.5
  torque: 
    x: -0.340999990702
    y: 0.64200001955
    z: 0.745000004768
---
header: 
  seq: 719
  stamp: 
    secs: 1603731417
    nsecs: 430409412
  frame_id: "robotiq_ft_frame_id"
wrench: 
  force: 
    x: -49.7200012207
    y: -121.809997559
    z: 77.5699996948
  torque: 
    x: -0.337000012398
    y: 0.643999993801
    z: 0.749000012875
---
header: 
  seq: 720
  stamp: 
    secs: 1603731417
    nsecs: 446834543
  frame_id: "robotiq_ft_frame_id"
wrench: 
  force: 
    x: -50.1300010681
    y: -121.050003052
    z: 77.0699996948
  torque: 
    x: -0.352999985218
    y: 0.648000001907
    z: 0.745999991894
---
header: 
  seq: 721
  stamp: 
    secs: 1603731417
    nsecs: 463328909
  frame_id: "robotiq_ft_frame_id"
wrench: 
  force: 
    x: -50.2099990845
    y: -121.260002136
    z: 77.1999969482
  torque: 
    x: -0.340999990702
    y: 0.644999980927
    z: 0.742999970913
---
header: 
  seq: 722
  stamp: 
    secs: 1603731417
    nsecs: 479838058
  frame_id: "robotiq_ft_frame_id"
wrench: 
  force: 
    x: -50.6500015259
    y: -121.720001221
    z: 77.2200012207
  torque: 
    x: -0.33599999547
    y: 0.648999989033
    z: 0.75
---
header: 
  seq: 723
  stamp: 
    secs: 1603731417
    nsecs: 496366547
  frame_id: "robotiq_ft_frame_id"
wrench: 
  force: 
    x: -49.6800003052
    y: -120.620002747
    z: 77.0400009155
  torque: 
    x: -0.342999994755
    y: 0.643999993801
    z: 0.749000012875
---
header: 
  seq: 724
  stamp: 
    secs: 1603731417
    nsecs: 512805139
  frame_id: "robotiq_ft_frame_id"
wrench: 
  force: 
    x: -50.8699989319
    y: -121.919998169
    z: 76.9300003052
  torque: 
    x: -0.340000003576
    y: 0.638000011444
    z: 0.745999991894
---
header: 
  seq: 725
  stamp: 
    secs: 1603731417
    nsecs: 525222693
  frame_id: "robotiq_ft_frame_id"
wrench: 
  force: 
    x: -50.4199981689
    y: -122.069999695
    z: 77.0
  torque: 
    x: -0.342999994755
    y: 0.647000014782
    z: 0.749000012875
---
header: 
  seq: 726
  stamp: 
    secs: 1603731417
    nsecs: 541764779
  frame_id: "robotiq_ft_frame_id"
wrench: 
  force: 
    x: -51.0600013733
    y: -121.199996948
    z: 77.3099975586
  torque: 
    x: -0.349000006914
    y: 0.648999989033
    z: 0.741999983788
---
header: 
  seq: 727
  stamp: 
    secs: 1603731417
    nsecs: 558302797
  frame_id: "robotiq_ft_frame_id"
wrench: 
  force: 
    x: -51.4300003052
    y: -121.430000305
    z: 77.1399993896
  torque: 
    x: -0.33599999547
    y: 0.639999985695
    z: 0.725000023842
---
header: 
  seq: 728
  stamp: 
    secs: 1603731417
    nsecs: 574771075
  frame_id: "robotiq_ft_frame_id"
wrench: 
  force: 
    x: -50.8499984741
    y: -120.970001221
    z: 77.2699966431
  torque: 
    x: -0.352999985218
    y: 0.653999984264
    z: 0.73299998045
---
header: 
  seq: 729
  stamp: 
    secs: 1603731417
    nsecs: 591295381
  frame_id: "robotiq_ft_frame_id"
wrench: 
  force: 
    x: -50.7000007629
    y: -121.180000305
    z: 77.3000030518
  torque: 
    x: -0.340000003576
    y: 0.652999997139
    z: 0.737999975681
---
header: 
  seq: 730
  stamp: 
    secs: 1603731417
    nsecs: 607809534
  frame_id: "robotiq_ft_frame_id"
wrench: 
  force: 
    x: -51.2400016785
    y: -120.830001831
    z: 77.5599975586
  torque: 
    x: -0.354000002146
    y: 0.648000001907
    z: 0.730000019073
---
header: 
  seq: 731
  stamp: 
    secs: 1603731417
    nsecs: 624337548
  frame_id: "robotiq_ft_frame_id"
wrench: 
  force: 
    x: -50.8300018311
    y: -120.940002441
    z: 77.2099990845
  torque: 
    x: -0.351999998093
    y: 0.646000027657
    z: 0.741999983788
---
header: 
  seq: 732
  stamp: 
    secs: 1603731417
    nsecs: 640791875
  frame_id: "robotiq_ft_frame_id"
wrench: 
  force: 
    x: -50.0699996948
    y: -120.660003662
    z: 76.5299987793
  torque: 
    x: -0.340000003576
    y: 0.643000006676
    z: 0.763000011444
---
header: 
  seq: 733
  stamp: 
    secs: 1603731417
    nsecs: 653076940
  frame_id: "robotiq_ft_frame_id"
wrench: 
  force: 
    x: -50.0400009155
    y: -121.190002441
    z: 76.8499984741
  torque: 
    x: -0.337000012398
    y: 0.648999989033
    z: 0.731000006199
---
header: 
  seq: 734
  stamp: 
    secs: 1603731417
    nsecs: 669345665
  frame_id: "robotiq_ft_frame_id"
wrench: 
  force: 
    x: -50.4900016785
    y: -121.459999084
    z: 76.8300018311
  torque: 
    x: -0.354999989271
    y: 0.644999980927
    z: 0.722000002861
---
header: 
  seq: 735
  stamp: 
    secs: 1603731417
    nsecs: 685677081
  frame_id: "robotiq_ft_frame_id"
wrench: 
  force: 
    x: -50.8699989319
    y: -122.690002441
    z: 76.6399993896
  torque: 
    x: -0.351000010967
    y: 0.652000010014
    z: 0.712999999523
---
header: 
  seq: 736
  stamp: 
    secs: 1603731417
    nsecs: 702072357
  frame_id: "robotiq_ft_frame_id"
wrench: 
  force: 
    x: -51.3199996948
    y: -122.669998169
    z: 76.8700027466
  torque: 
    x: -0.337999999523
    y: 0.635999977589
    z: 0.726999998093
---
header: 
  seq: 737
  stamp: 
    secs: 1603731417
    nsecs: 718423072
  frame_id: "robotiq_ft_frame_id"
wrench: 
  force: 
    x: -51.4199981689
    y: -123.059997559
    z: 77.0500030518
  torque: 
    x: -0.347999989986
    y: 0.638999998569
    z: 0.73299998045
---
header: 
  seq: 738
  stamp: 
    secs: 1603731417
    nsecs: 734737899
  frame_id: "robotiq_ft_frame_id"
wrench: 
  force: 
    x: -50.1500015259
    y: -122.019996643
    z: 77.2099990845
  torque: 
    x: -0.33599999547
    y: 0.644999980927
    z: 0.731000006199
---
header: 
  seq: 739
  stamp: 
    secs: 1603731417
    nsecs: 751067654
  frame_id: "robotiq_ft_frame_id"
wrench: 
  force: 
    x: -51.3800010681
    y: -123.040000916
    z: 77.3199996948
  torque: 
    x: -0.342999994755
    y: 0.643000006676
    z: 0.755999982357
---
header: 
  seq: 740
  stamp: 
    secs: 1603731417
    nsecs: 767354313
  frame_id: "robotiq_ft_frame_id"
wrench: 
  force: 
    x: -51.1800003052
    y: -123.36000061
    z: 77.1299972534
  torque: 
    x: -0.338999986649
    y: 0.643000006676
    z: 0.776000022888
---
header: 
  seq: 741
  stamp: 
    secs: 1603731417
    nsecs: 783678212
  frame_id: "robotiq_ft_frame_id"
wrench: 
  force: 
    x: -51.2099990845
    y: -122.849998474
    z: 77.2600021362
  torque: 
    x: -0.344999998808
    y: 0.649999976158
    z: 0.774999976158
---
header: 
  seq: 742
  stamp: 
    secs: 1603731417
    nsecs: 800063732
  frame_id: "robotiq_ft_frame_id"
wrench: 
  force: 
    x: -52.4399986267
    y: -123.260002136
    z: 76.8000030518
  torque: 
    x: -0.337999999523
    y: 0.652999997139
    z: 0.73400002718
---
header: 
  seq: 743
  stamp: 
    secs: 1603731417
    nsecs: 816386428
  frame_id: "robotiq_ft_frame_id"
wrench: 
  force: 
    x: -51.2200012207
    y: -122.75
    z: 76.8099975586
  torque: 
    x: -0.335000008345
    y: 0.634999990463
    z: 0.746999979019
---
header: 
  seq: 744
  stamp: 
    secs: 1603731417
    nsecs: 832741936
  frame_id: "robotiq_ft_frame_id"
wrench: 
  force: 
    x: -50.4399986267
    y: -122.650001526
    z: 77.0100021362
  torque: 
    x: -0.323000013828
    y: 0.634000003338
    z: 0.759999990463
---
header: 
  seq: 745
  stamp: 
    secs: 1603731417
    nsecs: 845011980
  frame_id: "robotiq_ft_frame_id"
wrench: 
  force: 
    x: -51.2400016785
    y: -122.620002747
    z: 77.2799987793
  torque: 
    x: -0.333999991417
    y: 0.638000011444
    z: 0.739000022411
---
header: 
  seq: 746
  stamp: 
    secs: 1603731417
    nsecs: 861343349
  frame_id: "robotiq_ft_frame_id"
wrench: 
  force: 
    x: -51.5200004578
    y: -122.779998779
    z: 77.4599990845
  torque: 
    x: -0.340000003576
    y: 0.629000008106
    z: 0.740000009537
---
header: 
  seq: 747
  stamp: 
    secs: 1603731417
    nsecs: 877834620
  frame_id: "robotiq_ft_frame_id"
wrench: 
  force: 
    x: -49.4700012207
    y: -120.809997559
    z: 77.4100036621
  torque: 
    x: -0.333000004292
    y: 0.643999993801
    z: 0.736000001431
---
header: 
  seq: 748
  stamp: 
    secs: 1603731417
    nsecs: 894301329
  frame_id: "robotiq_ft_frame_id"
wrench: 
  force: 
    x: -50.5600013733
    y: -121.959999084
    z: 77.1800003052
  torque: 
    x: -0.344000011683
    y: 0.643999993801
    z: 0.731000006199
---
header: 
  seq: 749
  stamp: 
    secs: 1603731417
    nsecs: 910654283
  frame_id: "robotiq_ft_frame_id"
wrench: 
  force: 
    x: -49.5999984741
    y: -120.809997559
    z: 77.1100006104
  torque: 
    x: -0.349000006914
    y: 0.638000011444
    z: 0.735000014305
---
header: 
  seq: 750
  stamp: 
    secs: 1603731417
    nsecs: 927130134
  frame_id: "robotiq_ft_frame_id"
wrench: 
  force: 
    x: -49.4399986267
    y: -121.61000061
    z: 77.4899978638
  torque: 
    x: -0.337999999523
    y: 0.638999998569
    z: 0.739000022411
---
header: 
  seq: 751
  stamp: 
    secs: 1603731417
    nsecs: 943647148
  frame_id: "robotiq_ft_frame_id"
wrench: 
  force: 
    x: -49.4900016785
    y: -122.519996643
    z: 77.5599975586
  torque: 
    x: -0.321999996901
    y: 0.64099997282
    z: 0.730000019073
---
header: 
  seq: 752
  stamp: 
    secs: 1603731417
    nsecs: 960057952
  frame_id: "robotiq_ft_frame_id"
wrench: 
  force: 
    x: -49.5
    y: -123.099998474
    z: 77.5400009155
  torque: 
    x: -0.33599999547
    y: 0.639999985695
    z: 0.731000006199
---
header: 
  seq: 753
  stamp: 
    secs: 1603731417
    nsecs: 976554885
  frame_id: "robotiq_ft_frame_id"
wrench: 
  force: 
    x: -47.3600006104
    y: -120.580001831
    z: 77.4400024414
  torque: 
    x: -0.330000013113
    y: 0.633000016212
    z: 0.742999970913
---
header: 
  seq: 754
  stamp: 
    secs: 1603731417
    nsecs: 988920976
  frame_id: "robotiq_ft_frame_id"
wrench: 
  force: 
    x: -48.9500007629
    y: -121.75
    z: 77.3799972534
  torque: 
    x: -0.331999987364
    y: 0.625999987125
    z: 0.740999996662
---
header: 
  seq: 755
  stamp: 
    secs: 1603731418
    nsecs:   5299923
  frame_id: "robotiq_ft_frame_id"
wrench: 
  force: 
    x: -49.4300003052
    y: -122.099998474
    z: 77.2600021362
  torque: 
    x: -0.337999999523
    y: 0.648000001907
    z: 0.745999991894
---
header: 
  seq: 756
  stamp: 
    secs: 1603731418
    nsecs:  21780843
  frame_id: "robotiq_ft_frame_id"
wrench: 
  force: 
    x: -49.5900001526
    y: -121.36000061
    z: 77.6299972534
  torque: 
    x: -0.340000003576
    y: 0.648999989033
    z: 0.744000017643
---
header: 
  seq: 757
  stamp: 
    secs: 1603731418
    nsecs:  38246584
  frame_id: "robotiq_ft_frame_id"
wrench: 
  force: 
    x: -49.4799995422
    y: -120.88999939
    z: 77.7300033569
  torque: 
    x: -0.326000005007
    y: 0.638999998569
    z: 0.740000009537
---
header: 
  seq: 758
  stamp: 
    secs: 1603731418
    nsecs:  54644279
  frame_id: "robotiq_ft_frame_id"
wrench: 
  force: 
    x: -48.3100013733
    y: -119.709999084
    z: 77.5699996948
  torque: 
    x: -0.321999996901
    y: 0.633000016212
    z: 0.753000020981
---
header: 
  seq: 759
  stamp: 
    secs: 1603731418
    nsecs:  71105162
  frame_id: "robotiq_ft_frame_id"
wrench: 
  force: 
    x: -49.4599990845
    y: -121.089996338
    z: 77.6699981689
  torque: 
    x: -0.324999988079
    y: 0.628000020981
    z: 0.722999989986
---
header: 
  seq: 760
  stamp: 
    secs: 1603731418
    nsecs:  87607721
  frame_id: "robotiq_ft_frame_id"
wrench: 
  force: 
    x: -49.9900016785
    y: -121.069999695
    z: 77.2699966431
  torque: 
    x: -0.33599999547
    y: 0.633000016212
    z: 0.728999972343
---
header: 
  seq: 761
  stamp: 
    secs: 1603731418
    nsecs: 104024021
  frame_id: "robotiq_ft_frame_id"
wrench: 
  force: 
    x: -49.5
    y: -121.169998169
    z: 77.2300033569
  torque: 
    x: -0.342000007629
    y: 0.635999977589
    z: 0.735000014305
---
header: 
  seq: 762
  stamp: 
    secs: 1603731418
    nsecs: 120535648
  frame_id: "robotiq_ft_frame_id"
wrench: 
  force: 
    x: -49.7599983215
    y: -121.38999939
    z: 77.0800018311
  torque: 
    x: -0.333999991417
    y: 0.635999977589
    z: 0.741999983788
---
header: 
  seq: 763
  stamp: 
    secs: 1603731418
    nsecs: 132962419
  frame_id: "robotiq_ft_frame_id"
wrench: 
  force: 
    x: -48.9700012207
    y: -119.940002441
    z: 77.3700027466
  torque: 
    x: -0.333000004292
    y: 0.643000006676
    z: 0.759999990463
---
header: 
  seq: 764
  stamp: 
    secs: 1603731418
    nsecs: 149408864
  frame_id: "robotiq_ft_frame_id"
wrench: 
  force: 
    x: -50.6699981689
    y: -121.36000061
    z: 77.4700012207
  torque: 
    x: -0.330000013113
    y: 0.635999977589
    z: 0.737999975681
---
header: 
  seq: 765
  stamp: 
    secs: 1603731418
    nsecs: 165876167
  frame_id: "robotiq_ft_frame_id"
wrench: 
  force: 
    x: -50.8600006104
    y: -122.239997864
    z: 77.2300033569
  torque: 
    x: -0.342999994755
    y: 0.64099997282
    z: 0.717999994755
---
header: 
  seq: 766
  stamp: 
    secs: 1603731418
    nsecs: 182301922
  frame_id: "robotiq_ft_frame_id"
wrench: 
  force: 
    x: -50.4500007629
    y: -121.989997864
    z: 77.5800018311
  torque: 
    x: -0.342000007629
    y: 0.634000003338
    z: 0.722999989986
---
header: 
  seq: 767
  stamp: 
    secs: 1603731418
    nsecs: 198770584
  frame_id: "robotiq_ft_frame_id"
wrench: 
  force: 
    x: -50.6699981689
    y: -122.120002747
    z: 77.8000030518
  torque: 
    x: -0.347999989986
    y: 0.634000003338
    z: 0.723999977112
---
header: 
  seq: 768
  stamp: 
    secs: 1603731418
    nsecs: 215264917
  frame_id: "robotiq_ft_frame_id"
wrench: 
  force: 
    x: -50.4900016785
    y: -121.720001221
    z: 77.8199996948
  torque: 
    x: -0.347999989986
    y: 0.634999990463
    z: 0.709999978542
---
header: 
  seq: 769
  stamp: 
    secs: 1603731418
    nsecs: 231721980
  frame_id: "robotiq_ft_frame_id"
wrench: 
  force: 
    x: -50.5400009155
    y: -120.449996948
    z: 77.5999984741
  torque: 
    x: -0.340999990702
    y: 0.623000025749
    z: 0.699000000954
---
header: 
  seq: 770
  stamp: 
    secs: 1603731418
    nsecs: 248268503
  frame_id: "robotiq_ft_frame_id"
wrench: 
  force: 
    x: -49.6399993896
    y: -121.760002136
    z: 77.3000030518
  torque: 
    x: -0.33599999547
    y: 0.626999974251
    z: 0.705999970436
---
header: 
  seq: 771
  stamp: 
    secs: 1603731418
    nsecs: 264756561
  frame_id: "robotiq_ft_frame_id"
wrench: 
  force: 
    x: -49.9700012207
    y: -121.900001526
    z: 77.2699966431
  torque: 
    x: -0.342000007629
    y: 0.630999982357
    z: 0.704999983311
---
header: 
  seq: 772
  stamp: 
    secs: 1603731418
    nsecs: 277099065
  frame_id: "robotiq_ft_frame_id"
wrench: 
  force: 
    x: -51.6399993896
    y: -122.510002136
    z: 77.3399963379
  torque: 
    x: -0.328999996185
    y: 0.632000029087
    z: 0.722000002861
---
header: 
  seq: 773
  stamp: 
    secs: 1603731418
    nsecs: 293572463
  frame_id: "robotiq_ft_frame_id"
wrench: 
  force: 
    x: -50.9399986267
    y: -121.269996643
    z: 77.3799972534
  torque: 
    x: -0.312999993563
    y: 0.629999995232
    z: 0.71899998188
---
header: 
  seq: 774
  stamp: 
    secs: 1603731418
    nsecs: 310068711
  frame_id: "robotiq_ft_frame_id"
wrench: 
  force: 
    x: -50.0499992371
    y: -120.970001221
    z: 77.2399978638
  torque: 
    x: -0.324000000954
    y: 0.629000008106
    z: 0.716000020504
---
header: 
  seq: 775
  stamp: 
    secs: 1603731418
    nsecs: 326539254
  frame_id: "robotiq_ft_frame_id"
wrench: 
  force: 
    x: -51.0499992371
    y: -120.63999939
    z: 76.9599990845
  torque: 
    x: -0.344000011683
    y: 0.634999990463
    z: 0.725000023842
---
header: 
  seq: 776
  stamp: 
    secs: 1603731418
    nsecs: 343015256
  frame_id: "robotiq_ft_frame_id"
wrench: 
  force: 
    x: -50.25
    y: -121.510002136
    z: 77.1399993896
  torque: 
    x: -0.340999990702
    y: 0.632000029087
    z: 0.731000006199
---
header: 
  seq: 777
  stamp: 
    secs: 1603731418
    nsecs: 359434157
  frame_id: "robotiq_ft_frame_id"
wrench: 
  force: 
    x: -50.8100013733
    y: -122.86000061
    z: 77.4599990845
  torque: 
    x: -0.324000000954
    y: 0.634000003338
    z: 0.740000009537
---
header: 
  seq: 778
  stamp: 
    secs: 1603731418
    nsecs: 375824553
  frame_id: "robotiq_ft_frame_id"
wrench: 
  force: 
    x: -51.5299987793
    y: -122.300003052
    z: 77.3899993896
  torque: 
    x: -0.326999992132
    y: 0.632000029087
    z: 0.749000012875
---
header: 
  seq: 779
  stamp: 
    secs: 1603731418
    nsecs: 392163032
  frame_id: "robotiq_ft_frame_id"
wrench: 
  force: 
    x: -51.3300018311
    y: -122.730003357
    z: 77.1699981689
  torque: 
    x: -0.342999994755
    y: 0.638999998569
    z: 0.768999993801
---
header: 
  seq: 780
  stamp: 
    secs: 1603731418
    nsecs: 408500032
  frame_id: "robotiq_ft_frame_id"
wrench: 
  force: 
    x: -51.1399993896
    y: -123.569999695
    z: 77.2399978638
  torque: 
    x: -0.34999999404
    y: 0.64200001955
    z: 0.754000008106
---
header: 
  seq: 781
  stamp: 
    secs: 1603731418
    nsecs: 424813702
  frame_id: "robotiq_ft_frame_id"
wrench: 
  force: 
    x: -51.3400001526
    y: -124.319999695
    z: 77.3600006104
  torque: 
    x: -0.335000008345
    y: 0.634999990463
    z: 0.750999987125
---
header: 
  seq: 782
  stamp: 
    secs: 1603731418
    nsecs: 437104751
  frame_id: "robotiq_ft_frame_id"
wrench: 
  force: 
    x: -50.0900001526
    y: -122.819999695
    z: 77.4599990845
  torque: 
    x: -0.338999986649
    y: 0.630999982357
    z: 0.735000014305
---
header: 
  seq: 783
  stamp: 
    secs: 1603731418
    nsecs: 453485727
  frame_id: "robotiq_ft_frame_id"
wrench: 
  force: 
    x: -50.5299987793
    y: -122.599998474
    z: 77.4400024414
  torque: 
    x: -0.342999994755
    y: 0.626999974251
    z: 0.735000014305
---
header: 
  seq: 784
  stamp: 
    secs: 1603731418
    nsecs: 469868216
  frame_id: "robotiq_ft_frame_id"
wrench: 
  force: 
    x: -50.8499984741
    y: -123.669998169
    z: 77.5299987793
  torque: 
    x: -0.344000011683
    y: 0.625999987125
    z: 0.744000017643
---
header: 
  seq: 785
  stamp: 
    secs: 1603731418
    nsecs: 486279000
  frame_id: "robotiq_ft_frame_id"
wrench: 
  force: 
    x: -50.9300003052
    y: -123.0
    z: 77.1900024414
  torque: 
    x: -0.342999994755
    y: 0.630999982357
    z: 0.736999988556
---
header: 
  seq: 786
  stamp: 
    secs: 1603731418
    nsecs: 502573685
  frame_id: "robotiq_ft_frame_id"
wrench: 
  force: 
    x: -50.1399993896
    y: -122.13999939
    z: 77.2399978638
  torque: 
    x: -0.349000006914
    y: 0.64099997282
    z: 0.73299998045
---
header: 
  seq: 787
  stamp: 
    secs: 1603731418
    nsecs: 518907152
  frame_id: "robotiq_ft_frame_id"
wrench: 
  force: 
    x: -50.4399986267
    y: -122.629997253
    z: 77.7699966431
  torque: 
    x: -0.370999991894
    y: 0.64200001955
    z: 0.754000008106
---
header: 
  seq: 788
  stamp: 
    secs: 1603731418
    nsecs: 535279560
  frame_id: "robotiq_ft_frame_id"
wrench: 
  force: 
    x: -50.4399986267
    y: -123.010002136
    z: 78.0400009155
  torque: 
    x: -0.358999997377
    y: 0.635999977589
    z: 0.745000004768
---
header: 
  seq: 789
  stamp: 
    secs: 1603731418
    nsecs: 551658664
  frame_id: "robotiq_ft_frame_id"
wrench: 
  force: 
    x: -50.0499992371
    y: -123.180000305
    z: 77.9800033569
  torque: 
    x: -0.358999997377
    y: 0.632000029087
    z: 0.726999998093
---
header: 
  seq: 790
  stamp: 
    secs: 1603731418
    nsecs: 568053153
  frame_id: "robotiq_ft_frame_id"
wrench: 
  force: 
    x: -49.1100006104
    y: -122.330001831
    z: 78.2600021362
  torque: 
    x: -0.361000001431
    y: 0.643999993801
    z: 0.714999973774
---
header: 
  seq: 791
  stamp: 
    secs: 1603731418
    nsecs: 584440342
  frame_id: "robotiq_ft_frame_id"
wrench: 
  force: 
    x: -48.9700012207
    y: -122.080001831
    z: 78.2900009155
  torque: 
    x: -0.356999993324
    y: 0.638999998569
    z: 0.722000002861
---
header: 
  seq: 792
  stamp: 
    secs: 1603731418
    nsecs: 600785398
  frame_id: "robotiq_ft_frame_id"
wrench: 
  force: 
    x: -49.3699989319
    y: -121.970001221
    z: 77.7300033569
  torque: 
    x: -0.351000010967
    y: 0.628000020981
    z: 0.72000002861
---
header: 
  seq: 793
  stamp: 
    secs: 1603731418
    nsecs: 612995131
  frame_id: "robotiq_ft_frame_id"
wrench: 
  force: 
    x: -49.4900016785
    y: -121.910003662
    z: 77.5400009155
  torque: 
    x: -0.351000010967
    y: 0.630999982357
    z: 0.72000002861
---
header: 
  seq: 794
  stamp: 
    secs: 1603731418
    nsecs: 629359096
  frame_id: "robotiq_ft_frame_id"
wrench: 
  force: 
    x: -49.4799995422
    y: -121.769996643
    z: 77.6399993896
  torque: 
    x: -0.351000010967
    y: 0.634999990463
    z: 0.708000004292
---
header: 
  seq: 795
  stamp: 
    secs: 1603731418
    nsecs: 645694407
  frame_id: "robotiq_ft_frame_id"
wrench: 
  force: 
    x: -49.2599983215
    y: -120.870002747
    z: 77.8799972534
  torque: 
    x: -0.361999988556
    y: 0.638000011444
    z: 0.721000015736
---
header: 
  seq: 796
  stamp: 
    secs: 1603731418
    nsecs: 662033656
  frame_id: "robotiq_ft_frame_id"
wrench: 
  force: 
    x: -48.7400016785
    y: -120.669998169
    z: 77.9700012207
  torque: 
    x: -0.354000002146
    y: 0.649999976158
    z: 0.744000017643
---
header: 
  seq: 797
  stamp: 
    secs: 1603731418
    nsecs: 678409893
  frame_id: "robotiq_ft_frame_id"
wrench: 
  force: 
    x: -49.7999992371
    y: -121.989997864
    z: 77.75
  torque: 
    x: -0.344999998808
    y: 0.65600001812
    z: 0.722000002861
---
header: 
  seq: 798
  stamp: 
    secs: 1603731418
    nsecs: 694693662
  frame_id: "robotiq_ft_frame_id"
wrench: 
  force: 
    x: -49.8400001526
    y: -122.300003052
    z: 77.4199981689
  torque: 
    x: -0.338999986649
    y: 0.652999997139
    z: 0.709999978542
---
header: 
  seq: 799
  stamp: 
    secs: 1603731418
    nsecs: 711047047
  frame_id: "robotiq_ft_frame_id"
wrench: 
  force: 
    x: -50.3699989319
    y: -122.220001221
    z: 77.6900024414
  torque: 
    x: -0.340000003576
    y: 0.647000014782
    z: 0.712000012398
---
header: 
  seq: 800
  stamp: 
    secs: 1603731418
    nsecs: 727444350
  frame_id: "robotiq_ft_frame_id"
wrench: 
  force: 
    x: -50.25
    y: -121.779998779
    z: 78.0500030518
  torque: 
    x: -0.33599999547
    y: 0.647000014782
    z: 0.707000017166
---
header: 
  seq: 801
  stamp: 
    secs: 1603731418
    nsecs: 743782386
  frame_id: "robotiq_ft_frame_id"
wrench: 
  force: 
    x: -50.6699981689
    y: -122.029998779
    z: 77.8700027466
  torque: 
    x: -0.349000006914
    y: 0.64099997282
    z: 0.712000012398
---
header: 
  seq: 802
  stamp: 
    secs: 1603731418
    nsecs: 760183858
  frame_id: "robotiq_ft_frame_id"
wrench: 
  force: 
    x: -50.5
    y: -122.470001221
    z: 77.9800033569
  torque: 
    x: -0.345999985933
    y: 0.651000022888
    z: 0.708000004292
---
header: 
  seq: 803
  stamp: 
    secs: 1603731418
    nsecs: 776589460
  frame_id: "robotiq_ft_frame_id"
wrench: 
  force: 
    x: -50.6699981689
    y: -122.220001221
    z: 77.9300003052
  torque: 
    x: -0.338999986649
    y: 0.632000029087
    z: 0.707000017166
---
header: 
  seq: 804
  stamp: 
    secs: 1603731418
    nsecs: 792959201
  frame_id: "robotiq_ft_frame_id"
wrench: 
  force: 
    x: -49.7700004578
    y: -122.099998474
    z: 77.8799972534
  torque: 
    x: -0.340999990702
    y: 0.643000006676
    z: 0.711000025272
---
header: 
  seq: 805
  stamp: 
    secs: 1603731418
    nsecs: 805177256
  frame_id: "robotiq_ft_frame_id"
wrench: 
  force: 
    x: -50.2999992371
    y: -122.300003052
    z: 77.3600006104
  torque: 
    x: -0.32800000906
    y: 0.617999970913
    z: 0.712000012398
---
header: 
  seq: 806
  stamp: 
    secs: 1603731418
    nsecs: 821559380
  frame_id: "robotiq_ft_frame_id"
wrench: 
  force: 
    x: -50.3199996948
    y: -122.370002747
    z: 77.4599990845
  torque: 
    x: -0.319999992847
    y: 0.616999983788
    z: 0.716000020504
---
header: 
  seq: 807
  stamp: 
    secs: 1603731418
    nsecs: 837923726
  frame_id: "robotiq_ft_frame_id"
wrench: 
  force: 
    x: -49.5200004578
    y: -121.25
    z: 77.8300018311
  torque: 
    x: -0.331999987364
    y: 0.635999977589
    z: 0.72000002861
---
header: 
  seq: 808
  stamp: 
    secs: 1603731418
    nsecs: 854291111
  frame_id: "robotiq_ft_frame_id"
wrench: 
  force: 
    x: -49.5600013733
    y: -120.720001221
    z: 77.9300003052
  torque: 
    x: -0.344999998808
    y: 0.64099997282
    z: 0.712999999523
---
header: 
  seq: 809
  stamp: 
    secs: 1603731418
    nsecs: 870591312
  frame_id: "robotiq_ft_frame_id"
wrench: 
  force: 
    x: -48.7799987793
    y: -121.760002136
    z: 77.8399963379
  torque: 
    x: -0.347000002861
    y: 0.637000024319
    z: 0.695999979973
---
header: 
  seq: 810
  stamp: 
    secs: 1603731418
    nsecs: 886960573
  frame_id: "robotiq_ft_frame_id"
wrench: 
  force: 
    x: -49.4599990845
    y: -122.059997559
    z: 77.7099990845
  torque: 
    x: -0.349000006914
    y: 0.635999977589
    z: 0.711000025272
---
header: 
  seq: 811
  stamp: 
    secs: 1603731418
    nsecs: 903394695
  frame_id: "robotiq_ft_frame_id"
wrench: 
  force: 
    x: -50.1100006104
    y: -122.459999084
    z: 77.5800018311
  torque: 
    x: -0.347999989986
    y: 0.634000003338
    z: 0.725000023842
---
header: 
  seq: 812
  stamp: 
    secs: 1603731418
    nsecs: 919917065
  frame_id: "robotiq_ft_frame_id"
wrench: 
  force: 
    x: -49.3600006104
    y: -121.440002441
    z: 77.3600006104
  torque: 
    x: -0.342000007629
    y: 0.632000029087
    z: 0.704999983311
---
header: 
  seq: 813
  stamp: 
    secs: 1603731418
    nsecs: 936454440
  frame_id: "robotiq_ft_frame_id"
wrench: 
  force: 
    x: -49.0600013733
    y: -121.629997253
    z: 77.4899978638
  torque: 
    x: -0.337999999523
    y: 0.643000006676
    z: 0.711000025272
---
header: 
  seq: 814
  stamp: 
    secs: 1603731418
    nsecs: 952971517
  frame_id: "robotiq_ft_frame_id"
wrench: 
  force: 
    x: -50.1800003052
    y: -120.419998169
    z: 77.3899993896
  torque: 
    x: -0.342000007629
    y: 0.639999985695
    z: 0.699999988079
---
header: 
  seq: 815
  stamp: 
    secs: 1603731418
    nsecs: 965349277
  frame_id: "robotiq_ft_frame_id"
wrench: 
  force: 
    x: -50.1699981689
    y: -121.379997253
    z: 77.0299987793
  torque: 
    x: -0.345999985933
    y: 0.648000001907
    z: 0.677999973297
---
header: 
  seq: 816
  stamp: 
    secs: 1603731418
    nsecs: 981884659
  frame_id: "robotiq_ft_frame_id"
wrench: 
  force: 
    x: -51.3300018311
    y: -122.830001831
    z: 76.9700012207
  torque: 
    x: -0.34999999404
    y: 0.652999997139
    z: 0.68599998951
---
header: 
  seq: 817
  stamp: 
    secs: 1603731418
    nsecs: 998410090
  frame_id: "robotiq_ft_frame_id"
wrench: 
  force: 
    x: -51.0299987793
    y: -124.260002136
    z: 77.1900024414
  torque: 
    x: -0.333999991417
    y: 0.638000011444
    z: 0.689999997616
---
header: 
  seq: 818
  stamp: 
    secs: 1603731419
    nsecs:  14823944
  frame_id: "robotiq_ft_frame_id"
wrench: 
  force: 
    x: -51.0200004578
    y: -124.38999939
    z: 77.4800033569
  torque: 
    x: -0.317999988794
    y: 0.638999998569
    z: 0.68900001049
---
header: 
  seq: 819
  stamp: 
    secs: 1603731419
    nsecs:  31358322
  frame_id: "robotiq_ft_frame_id"
wrench: 
  force: 
    x: -51.1199989319
    y: -123.040000916
    z: 77.25
  torque: 
    x: -0.337000012398
    y: 0.65499997139
    z: 0.667999982834
---
header: 
  seq: 820
  stamp: 
    secs: 1603731419
    nsecs:  47781796
  frame_id: "robotiq_ft_frame_id"
wrench: 
  force: 
    x: -51.8199996948
    y: -124.260002136
    z: 77.5899963379
  torque: 
    x: -0.347000002861
    y: 0.637000024319
    z: 0.68599998951
---
header: 
  seq: 821
  stamp: 
    secs: 1603731419
    nsecs:  64341725
  frame_id: "robotiq_ft_frame_id"
wrench: 
  force: 
    x: -51.4399986267
    y: -124.019996643
    z: 77.6800003052
  torque: 
    x: -0.344999998808
    y: 0.638999998569
    z: 0.705999970436
---
header: 
  seq: 822
  stamp: 
    secs: 1603731419
    nsecs:  80842087
  frame_id: "robotiq_ft_frame_id"
wrench: 
  force: 
    x: -52.3199996948
    y: -124.410003662
    z: 77.5699996948
  torque: 
    x: -0.351999998093
    y: 0.646000027657
    z: 0.740999996662
---
header: 
  seq: 823
  stamp: 
    secs: 1603731419
    nsecs:  93264183
  frame_id: "robotiq_ft_frame_id"
wrench: 
  force: 
    x: -51.9799995422
    y: -124.959999084
    z: 77.7200012207
  torque: 
    x: -0.340999990702
    y: 0.630999982357
    z: 0.731000006199
---
header: 
  seq: 824
  stamp: 
    secs: 1603731419
    nsecs: 109729870
  frame_id: "robotiq_ft_frame_id"
wrench: 
  force: 
    x: -50.2099990845
    y: -122.059997559
    z: 77.9000015259
  torque: 
    x: -0.344000011683
    y: 0.638999998569
    z: 0.737999975681
---
header: 
  seq: 825
  stamp: 
    secs: 1603731419
    nsecs: 126177961
  frame_id: "robotiq_ft_frame_id"
wrench: 
  force: 
    x: -51.4900016785
    y: -123.580001831
    z: 77.4199981689
  torque: 
    x: -0.321999996901
    y: 0.638999998569
    z: 0.723999977112
---
header: 
  seq: 826
  stamp: 
    secs: 1603731419
    nsecs: 142662239
  frame_id: "robotiq_ft_frame_id"
wrench: 
  force: 
    x: -51.0699996948
    y: -122.830001831
    z: 77.5
  torque: 
    x: -0.342999994755
    y: 0.634999990463
    z: 0.723999977112
---
header: 
  seq: 827
  stamp: 
    secs: 1603731419
    nsecs: 159192003
  frame_id: "robotiq_ft_frame_id"
wrench: 
  force: 
    x: -50.1500015259
    y: -122.089996338
    z: 77.5199966431
  torque: 
    x: -0.344000011683
    y: 0.632000029087
    z: 0.721000015736
---
header: 
  seq: 828
  stamp: 
    secs: 1603731419
    nsecs: 175734014
  frame_id: "robotiq_ft_frame_id"
wrench: 
  force: 
    x: -50.4399986267
    y: -121.36000061
    z: 77.3000030518
  torque: 
    x: -0.351999998093
    y: 0.644999980927
    z: 0.711000025272
---
header: 
  seq: 829
  stamp: 
    secs: 1603731419
    nsecs: 192215900
  frame_id: "robotiq_ft_frame_id"
wrench: 
  force: 
    x: -51.5099983215
    y: -122.440002441
    z: 77.4199981689
  torque: 
    x: -0.344000011683
    y: 0.639999985695
    z: 0.712000012398
---
header: 
  seq: 830
  stamp: 
    secs: 1603731419
    nsecs: 208682457
  frame_id: "robotiq_ft_frame_id"
wrench: 
  force: 
    x: -51.6399993896
    y: -122.949996948
    z: 77.4000015259
  torque: 
    x: -0.345999985933
    y: 0.638999998569
    z: 0.70300000906
---
header: 
  seq: 831
  stamp: 
    secs: 1603731419
    nsecs: 221156744
  frame_id: "robotiq_ft_frame_id"
wrench: 
  force: 
    x: -50.0400009155
    y: -121.349998474
    z: 77.4599990845
  torque: 
    x: -0.351999998093
    y: 0.648999989033
    z: 0.703999996185
---
header: 
  seq: 832
  stamp: 
    secs: 1603731419
    nsecs: 237662765
  frame_id: "robotiq_ft_frame_id"
wrench: 
  force: 
    x: -50.7999992371
    y: -122.959999084
    z: 78.1200027466
  torque: 
    x: -0.363999992609
    y: 0.646000027657
    z: 0.680999994278
---
header: 
  seq: 833
  stamp: 
    secs: 1603731419
    nsecs: 254165842
  frame_id: "robotiq_ft_frame_id"
wrench: 
  force: 
    x: -50.8899993896
    y: -123.449996948
    z: 78.1699981689
  torque: 
    x: -0.363000005484
    y: 0.638999998569
    z: 0.685000002384
---
header: 
  seq: 834
  stamp: 
    secs: 1603731419
    nsecs: 270675383
  frame_id: "robotiq_ft_frame_id"
wrench: 
  force: 
    x: -50.9500007629
    y: -122.88999939
    z: 77.6299972534
  torque: 
    x: -0.356000006199
    y: 0.635999977589
    z: 0.685000002384
---
header: 
  seq: 835
  stamp: 
    secs: 1603731419
    nsecs: 287142630
  frame_id: "robotiq_ft_frame_id"
wrench: 
  force: 
    x: -50.2700004578
    y: -122.059997559
    z: 78.1800003052
  torque: 
    x: -0.349000006914
    y: 0.652000010014
    z: 0.708999991417
---
header: 
  seq: 836
  stamp: 
    secs: 1603731419
    nsecs: 303682371
  frame_id: "robotiq_ft_frame_id"
wrench: 
  force: 
    x: -50.2400016785
    y: -122.010002136
    z: 78.2099990845
  torque: 
    x: -0.347999989986
    y: 0.649999976158
    z: 0.709999978542
---
header: 
  seq: 837
  stamp: 
    secs: 1603731419
    nsecs: 320172339
  frame_id: "robotiq_ft_frame_id"
wrench: 
  force: 
    x: -49.4599990845
    y: -121.589996338
    z: 77.3399963379
  torque: 
    x: -0.351000010967
    y: 0.647000014782
    z: 0.727999985218
---
header: 
  seq: 838
  stamp: 
    secs: 1603731419
    nsecs: 336619398
  frame_id: "robotiq_ft_frame_id"
wrench: 
  force: 
    x: -49.1199989319
    y: -121.819999695
    z: 77.4899978638
  torque: 
    x: -0.333999991417
    y: 0.64099997282
    z: 0.748000025749
---
header: 
  seq: 839
  stamp: 
    secs: 1603731419
    nsecs: 353079279
  frame_id: "robotiq_ft_frame_id"
wrench: 
  force: 
    x: -49.6300010681
    y: -122.190002441
    z: 77.4899978638
  torque: 
    x: -0.33599999547
    y: 0.634999990463
    z: 0.731999993324
---
header: 
  seq: 840
  stamp: 
    secs: 1603731419
    nsecs: 365436962
  frame_id: "robotiq_ft_frame_id"
wrench: 
  force: 
    x: -50.7700004578
    y: -122.309997559
    z: 77.0899963379
  torque: 
    x: -0.345999985933
    y: 0.638999998569
    z: 0.709999978542
---
header: 
  seq: 841
  stamp: 
    secs: 1603731419
    nsecs: 381899987
  frame_id: "robotiq_ft_frame_id"
wrench: 
  force: 
    x: -50.8400001526
    y: -122.279998779
    z: 77.1500015259
  torque: 
    x: -0.342000007629
    y: 0.646000027657
    z: 0.717999994755
---
header: 
  seq: 842
  stamp: 
    secs: 1603731419
    nsecs: 398349752
  frame_id: "robotiq_ft_frame_id"
wrench: 
  force: 
    x: -49.5499992371
    y: -121.569999695
    z: 77.5599975586
  torque: 
    x: -0.342999994755
    y: 0.65600001812
    z: 0.702000021935
---
header: 
  seq: 843
  stamp: 
    secs: 1603731419
    nsecs: 414742319
  frame_id: "robotiq_ft_frame_id"
wrench: 
  force: 
    x: -50.0400009155
    y: -121.129997253
    z: 77.5299987793
  torque: 
    x: -0.342999994755
    y: 0.648000001907
    z: 0.691999971867
---
header: 
  seq: 844
  stamp: 
    secs: 1603731419
    nsecs: 431189300
  frame_id: "robotiq_ft_frame_id"
wrench: 
  force: 
    x: -50.9700012207
    y: -122.86000061
    z: 77.3000030518
  torque: 
    x: -0.360000014305
    y: 0.638000011444
    z: 0.717999994755
---
header: 
  seq: 845
  stamp: 
    secs: 1603731419
    nsecs: 447712711
  frame_id: "robotiq_ft_frame_id"
wrench: 
  force: 
    x: -50.2799987793
    y: -121.36000061
    z: 77.6500015259
  torque: 
    x: -0.358000010252
    y: 0.646000027657
    z: 0.725000023842
---
header: 
  seq: 846
  stamp: 
    secs: 1603731419
    nsecs: 464259741
  frame_id: "robotiq_ft_frame_id"
wrench: 
  force: 
    x: -50.9900016785
    y: -122.230003357
    z: 77.6500015259
  torque: 
    x: -0.347000002861
    y: 0.65499997139
    z: 0.731999993324
---
header: 
  seq: 847
  stamp: 
    secs: 1603731419
    nsecs: 480766165
  frame_id: "robotiq_ft_frame_id"
wrench: 
  force: 
    x: -51.0200004578
    y: -122.419998169
    z: 77.6399993896
  torque: 
    x: -0.354000002146
    y: 0.653999984264
    z: 0.736000001431
---
header: 
  seq: 848
  stamp: 
    secs: 1603731419
    nsecs: 493184504
  frame_id: "robotiq_ft_frame_id"
wrench: 
  force: 
    x: -50.9300003052
    y: -122.61000061
    z: 77.5
  torque: 
    x: -0.345999985933
    y: 0.638000011444
    z: 0.737999975681
---
header: 
  seq: 849
  stamp: 
    secs: 1603731419
    nsecs: 509710881
  frame_id: "robotiq_ft_frame_id"
wrench: 
  force: 
    x: -50.4799995422
    y: -122.209999084
    z: 77.1699981689
  torque: 
    x: -0.342999994755
    y: 0.648999989033
    z: 0.742999970913
---
header: 
  seq: 850
  stamp: 
    secs: 1603731419
    nsecs: 526255267
  frame_id: "robotiq_ft_frame_id"
wrench: 
  force: 
    x: -51.1300010681
    y: -122.569999695
    z: 77.0899963379
  torque: 
    x: -0.347000002861
    y: 0.649999976158
    z: 0.772000014782
---
header: 
  seq: 851
  stamp: 
    secs: 1603731419
    nsecs: 542703487
  frame_id: "robotiq_ft_frame_id"
wrench: 
  force: 
    x: -52.1300010681
    y: -123.529998779
    z: 77.2300033569
  torque: 
    x: -0.349000006914
    y: 0.64099997282
    z: 0.78100001812
---
header: 
  seq: 852
  stamp: 
    secs: 1603731419
    nsecs: 559159584
  frame_id: "robotiq_ft_frame_id"
wrench: 
  force: 
    x: -51.8800010681
    y: -123.269996643
    z: 78.1200027466
  torque: 
    x: -0.358999997377
    y: 0.644999980927
    z: 0.760999977589
---
header: 
  seq: 853
  stamp: 
    secs: 1603731419
    nsecs: 575659652
  frame_id: "robotiq_ft_frame_id"
wrench: 
  force: 
    x: -51.4199981689
    y: -124.010002136
    z: 78.3499984741
  torque: 
    x: -0.354000002146
    y: 0.639999985695
    z: 0.755999982357
---
header: 
  seq: 854
  stamp: 
    secs: 1603731419
    nsecs: 592141757
  frame_id: "robotiq_ft_frame_id"
wrench: 
  force: 
    x: -50.6800003052
    y: -123.800003052
    z: 78.2099990845
  torque: 
    x: -0.347999989986
    y: 0.646000027657
    z: 0.773999989033
---
header: 
  seq: 855
  stamp: 
    secs: 1603731419
    nsecs: 608639648
  frame_id: "robotiq_ft_frame_id"
wrench: 
  force: 
    x: -50.6100006104
    y: -123.059997559
    z: 77.9899978638
  torque: 
    x: -0.363000005484
    y: 0.648000001907
    z: 0.76700001955
---
header: 
  seq: 856
  stamp: 
    secs: 1603731419
    nsecs: 625146690
  frame_id: "robotiq_ft_frame_id"
wrench: 
  force: 
    x: -50.8899993896
    y: -123.680000305
    z: 77.9000015259
  torque: 
    x: -0.345999985933
    y: 0.65499997139
    z: 0.763000011444
---
header: 
  seq: 857
  stamp: 
    secs: 1603731419
    nsecs: 637557953
  frame_id: "robotiq_ft_frame_id"
wrench: 
  force: 
    x: -49.6599998474
    y: -123.279998779
    z: 77.75
  torque: 
    x: -0.344999998808
    y: 0.657000005245
    z: 0.774999976158
---
header: 
  seq: 858
  stamp: 
    secs: 1603731419
    nsecs: 654093307
  frame_id: "robotiq_ft_frame_id"
wrench: 
  force: 
    x: -49.3699989319
    y: -122.900001526
    z: 77.4599990845
  torque: 
    x: -0.342000007629
    y: 0.65600001812
    z: 0.78100001812
---
header: 
  seq: 859
  stamp: 
    secs: 1603731419
    nsecs: 670578586
  frame_id: "robotiq_ft_frame_id"
wrench: 
  force: 
    x: -50.1699981689
    y: -123.099998474
    z: 77.8199996948
  torque: 
    x: -0.344000011683
    y: 0.646000027657
    z: 0.762000024319
---
header: 
  seq: 860
  stamp: 
    secs: 1603731419
    nsecs: 686963873
  frame_id: "robotiq_ft_frame_id"
wrench: 
  force: 
    x: -49.5999984741
    y: -123.650001526
    z: 77.3799972534
  torque: 
    x: -0.326999992132
    y: 0.635999977589
    z: 0.768999993801
---
header: 
  seq: 861
  stamp: 
    secs: 1603731419
    nsecs: 703436241
  frame_id: "robotiq_ft_frame_id"
wrench: 
  force: 
    x: -48.8800010681
    y: -123.199996948
    z: 77.1800003052
  torque: 
    x: -0.323000013828
    y: 0.634999990463
    z: 0.777000010014
---
header: 
  seq: 862
  stamp: 
    secs: 1603731419
    nsecs: 719975332
  frame_id: "robotiq_ft_frame_id"
wrench: 
  force: 
    x: -48.5999984741
    y: -123.279998779
